Lon	Lat	Region	TypeCat	KW	Name	Map
-3.91003	39.63212	Andalus	towns	cite	Abnaš	cornu14
-7.1741	38.87561	Andalus	towns	cite	al-Baš/Albas	cornu14
0.57785	41.83632	Andalus	towns	cite	al-Bayḍāʾ	cornu14
-9.19189	38.64984	Andalus	towns	cite	al-Maʿdan	cornu14
-6.87557	40.62317	Andalus	towns	cite	al-Maʾidaŧ	cornu14
-2.50099	36.86202	Andalus	towns	cite	al-Mariyyaŧ	cornu14
-0.43734	39.16483	Andalus	villages	localite	al-Šaqr	cornu14
-4.85328	37.96011	Andalus	towns	cite	al-Zahrāʾ	cornu14
3.00118	43.18643	Andalus	towns	cite	Arbūnaŧ	cornu14
-4.42886	37.08687	Andalus	towns	cite	Arǧidūnaŧ	cornu14
-4.053	37.9204	Andalus	towns	cite	Arǧūnaŧ	cornu14
-7.80444	38.00689	Andalus	regions	district	Bāǧaŧ	cornu14
-7.80444	38.00689	Andalus	towns	cite	Bāǧaŧ	cornu14
-2.41826	36.95657	Andalus	regions	district	Baǧǧānaŧ	cornu14
-2.41826	36.95657	Andalus	towns	cite	Baǧǧānaŧ	cornu14
1.71713	37.28888	Andalus	waters	mer	Baḥr al-Rūm	cornu14
-0.41486	39.43516	Andalus	regions	district	Balansiyyaŧ	cornu14
-0.41486	39.43516	Andalus	towns	cite	Balansiyyaŧ	cornu14
-6.99606	38.835	Andalus	regions	region	Baṭalyūs/Baṭalyūṯ	cornu14
-6.99606	38.835	Andalus	towns	cite	Baṭalyūs/Baṭalyūṯ	cornu14
-4.20406	37.45788	Andalus	towns	cite	Bayġū	cornu14
-3.45773	37.9998	Andalus	towns	cite	Bayyāsaŧ	cornu14
-7.87188	39.02806	Andalus	towns	cite	Bīzaŧ	cornu14
-4.89554	38.63018	Andalus	regions	district	Faḥṣ al-Ballūṭ	cornu14
-5.58702	37.95728	Andalus	villages	region	Firrīš/Qarsīs	cornu14
-6.99696	37.41112	Andalus	towns	cite	Ǧabal al-ʿUyūn	cornu14
-5.01064	38.68214	Andalus	towns	cite	Ġāfiq	cornu14
-7.22985	38.77894	Andalus	towns	cite	Ǧalmāniyaŧ	cornu14
-3.5998	37.20621	Andalus	towns	cite	Ġarnāṭaŧ	cornu14
-3.80302	37.78977	Andalus	towns	cite	Ǧayyān	cornu14
-5.43793	36.16359	Andalus	regions	district	Ǧazīraŧ al-Ḫaḍrāʾ	cornu14
-5.33071	36.16752	Andalus	towns	cite	Ǧazīraŧ Ǧabal Ṭāriq	cornu14
2.84472	41.93607	Andalus	towns	cite	Ǧirundaŧ	cornu14
-4.22025	37.87073	Andalus	towns	cite	Ḥiṣn Bulkūnaŧ	cornu14
-7.90515	37.06463	Andalus	regions	district	Ḫušunubaŧ/Uḫšunubaŧ	cornu14
-5.96199	37.4079	Andalus	regions	district	Išbīliyyaŧ	cornu14
-5.96199	37.4079	Andalus	towns	cite	Išbīliyyaŧ	cornu14
-5.10865	37.53493	Andalus	towns	cite	Istiǧaŧ	cornu14
-4.06918	38.81784	Andalus	towns	cite	Karkūyaŧ	cornu14
-7.21996	37.23807	Andalus	towns	cite	Lab	cornu14
-6.66965	37.38969	Andalus	towns	cite	Lablaŧ	cornu14
0.64889	41.60948	Andalus	sites	placefrontiere	Lāridaŧ	cornu14
-3.66814	37.22734	Andalus	regions	district	Libīraŧ/Ilbīraŧ	cornu14
-3.66814	37.22734	Andalus	towns	cite	Libīraŧ/Ilbīraŧ	cornu14
-9.14514	38.76878	Andalus	towns	cite	Lišbūnaŧ	cornu14
-5.56634	42.6185	Andalus	towns	cite	Liyūn	cornu14
-1.73128	37.6532	Andalus	towns	cite	Lurqaŧ	cornu14
-5.94131	38.93229	Andalus	towns	cite	Madallīn	cornu14
-8.42308	37.22519	Andalus	towns	cite	Madīnaŧ Šalab/Šilb	cornu14
-2.41736	41.13714	Andalus	towns	cite	Madīnaŧ Sālim	cornu14
-6.06629	39.80641	Andalus	towns	cite	Maḫāḍaŧ al-Balāṭ ?	cornu14
-3.91362	39.1739	Andalus	towns	cite	Malaqūn	cornu14
-4.43066	36.74791	Andalus	regions	district	Māliqaŧ	cornu14
-4.43066	36.74791	Andalus	towns	cite	Māliqaŧ	cornu14
-3.62588	39.81332	Andalus	towns	cite	Mantīšaŧ	cornu14
-6.32886	38.89521	Andalus	towns	cite	Māridaŧ	cornu14
-3.98826	37.74285	Andalus	towns	cite	Mārtūš	cornu14
-5.48272	37.14029	Andalus	towns	cite	Mawrūr	cornu14
-3.9424	39.97062	Andalus	villages	village	Muġān	cornu14
-1.11443	37.99945	Andalus	towns	cite	Mursiyaŧ	cornu14
-0.99933	41.7827	Andalus	waters	riviere	Nahr Abruh	cornu14
-5.11225	37.75423	Andalus	waters	riviere	Nahr Qurṭūbaŧ	cornu14
-6.18409	36.57191	Andalus	regions	ile	Qādis	cornu14
-3.78324	38.80312	Andalus	towns	cite	Qalʿaŧ Rabāh/Qalʿaŧ Ribāṭ	cornu14
-0.47061	38.34618	Andalus	towns	cite	Qānt	cornu14
-6.8414	39.69061	Andalus	towns	cite	Qanṭaraŧ al-Sīf	cornu14
-5.64097	37.42933	Andalus	towns	cite	Qarmūnaŧ	cornu14
-0.98315	37.6005	Andalus	villages	localite	Qarṭāǧannaŧ	cornu14
-6.3954	39.46953	Andalus	towns	cite	Qaṣarāš	cornu14
-8.48333	38.36698	Andalus	towns	cite	Qaṣr Banū Wardās	cornu14
-3.87676	37.98847	Andalus	towns	cite	Qasṭallaŧ	cornu14
-6.55006	39.9627	Andalus	towns	cite	Quriyaŧ	cornu14
-4.78135	37.91898	Andalus	metropoles	metropole	Qurṭūbaŧ	cornu14
-4.40368	36.98351	Andalus	regions	district	Rayyaŧ/Rayyuh	cornu14
-5.91433	36.4664	Andalus	regions	district	Šaḏūnaŧ/Šadūnaŧ	cornu14
-5.91433	36.4664	Andalus	towns	cite	Šaḏūnaŧ/Šadūnaŧ	cornu14
-5.76776	41.44051	Andalus	towns	cite	Sammūraŧ	cornu14
-9.37353	38.80838	Andalus	villages	localite	Šantaraŧ	cornu14
-8.71712	39.22337	Andalus	towns	cite	Šantarīn	cornu14
-0.9292	41.63368	Andalus	regions	district	Saraqūsaŧ/Saraqūsṭaŧ	cornu14
-0.9292	41.63368	Andalus	towns	cite	Saraqūsaŧ/Saraqūsṭaŧ	cornu14
-6.10856	36.69169	Andalus	towns	cite	Šarīš	cornu14
-0.52276	38.96551	Andalus	towns	cite	Šātibaŧ	cornu14
-3.34803	37.87641	Andalus	towns	cite	Šawḏar	cornu14
-4.82541	39.97062	Andalus	towns	cite	Ṭalābiraŧ ?	cornu14
-5.93861	39.48654	Andalus	towns	cite	Taraǧīlaŧ	cornu14
-1.34462	37.95834	Andalus	regions	region	Tudmīr	cornu14
-4.0521	39.88926	Andalus	regions	district	Ṭulayṭilaŧ	cornu14
-4.0521	39.88926	Andalus	towns	cite	Ṭulayṭilaŧ	cornu14
0.60933	40.79221	Andalus	towns	cite	Ṭurṭūšaŧ	cornu14
-1.62697	42.04634	Andalus	regions	district	Tuṭīlaŧ	cornu14
-1.62697	42.04634	Andalus	towns	cite	Tuṭīlaŧ	cornu14
-3.15111	40.6491	Andalus	regions	district	Wādī al-Ḥijāraŧ	cornu14
-8.03553	39.5299	Andalus	waters	fleuve	Wādī Tāǧū	cornu14
-3.16459	37.33966	Andalus	towns	cite	Wādiyāš	cornu14
-0.35371	42.16109	Andalus	regions	district	Wašqaŧ	cornu14
1.41141	38.94978	Andalus	regions	ile	Yābisaŧ	cornu14
41.72002	36.99109	Aqur	towns	cite	Aḏramaŧ	cornu2
40.09518	34.93204	Aqur	waystations	etape	al-ʿAwāmil	cornu2
43.32428	35.62554	Aqur	waystations	etape	al-Baqīʿaŧ ?	cornu2
40.74111	34.71355	Aqur	towns	cite	al-Dāliyaŧ	cornu2
40.56368	34.92311	Aqur	waystations	etape	al-Fāš	cornu2
40.59626	35.4148	Aqur	towns	cite	al-Fudayn	cornu2
42.18317	34.23688	Aqur	villages	localite	al-Fuḥaymaŧ	cornu2
40.78158	34.679	Aqur	villages	localite	al-Furḍaŧ	cornu2
40.41354	36.65489	Aqur	towns	cite	al-Ǧaḥšiyyaŧ	cornu2
41.62102	36.2374	Aqur	towns	cite	al-Ǧibāl/ʿAyn al-Ǧibāl	cornu2
39.46613	35.32264	Aqur	waystations	etape	al-Ġurayz ?/al-ʿUrayr	cornu2
37.52545	37.73001	Aqur	towns	cite	al-Ḥadaṯ	cornu2
42.38707	34.10682	Aqur	towns	cite	al-Ḥadīṯaŧ	cornu2
43.39249	36.02054	Aqur	towns	cite	al-Ḥadīṯaŧ	cornu2
42.69628	35.79513	Aqur	towns	cite	al-Ḥaḍr	cornu2
39.81661	35.75218	Aqur	towns	cite	al-Ḫānūqaŧ	cornu2
42.72248	37.11078	Aqur	towns	cite	al-Ḥasaniyyaŧ	cornu2
42.50069	33.9843	Aqur	waystations	etape?	al-Ḫizānaŧ	cornu2
40.71642	35.62321	Aqur	towns	cite	al-Ḥuṣayn	cornu2
40.55153	36.53446	Aqur	towns	cite	al-Maǧdal	cornu2
42.7655	36.25676	Aqur	villages	localite	al-Maḥlabiyyaŧ	cornu2
40.75853	36.19626	Aqur	villages	localite	al-Maṭariyyaŧ	cornu2
43.127	36.32809	Aqur	capitals	capitale	al-Mawṣil	cornu2
39.8395	35.58832	Aqur	villages	localite	al-Mubārak	cornu2
41.13557	35.33548	Aqur	towns	cite?	al-Munḫariq ?	cornu2
38.52691	37.28854	Aqur	waystations	etape	al-Muzāniyyaŧ ?	cornu2
41.5567	34.39307	Aqur	towns	cite	al-Nihiyyaŧ	cornu2
40.45161	34.81073	Aqur	waystations	etape	al-Qamarṭī/al-Qamraṭī ?	cornu2
39.76511	35.05726	Aqur	waystations	etape	al-Qaṣabaŧ ?	cornu2
39.07703	35.94235	Aqur	quarter	faubourg	al-Rāfiqaŧ	cornu2
39.05128	35.9493	Aqur	capitals	capitale	al-Raqqaŧ	cornu2
38.82122	37.1497	Aqur	towns	cite	al-Ruhā	cornu2
42.9665	36.27006	Aqur	waystations	etape	al-Šaḥḥāǧiyyaŧ	cornu2
40.90954	35.86703	Aqur	towns	cite	al-Šamsīniyyaŧ/al-Šamsāniyyaŧ	cornu2
40.65491	35.49287	Aqur	towns	cite	al-Ṣuwwār	cornu2
42.41353	33.98559	Aqur	towns	cite	Ālūs/Ālūsā	cornu2
40.21323	37.9151	Aqur	capitals	capitale	Āmid	cornu2
41.95904	34.43481	Aqur	towns	cite	ʿĀnaŧ	cornu2
40.69403	36.05814	Aqur	capitals	capitale	ʿArabān	cornu2
37.96251	38.36373	Aqur	waystations	etape	ʿArqaŧ	cornu2
41.65964	37.9789	Aqur	villages	localite	Arzan	cornu2
38.91206	36.34984	Aqur	waystations	etape	ʿAyn al-Rūmiyyaŧ ?	cornu2
43.36699	36.41022	Aqur	villages	bourgade	Bāʿašīqā	cornu2
42.43701	36.6609	Aqur	towns	cite	Bāʿaynāṯā ?	cornu2
42.13266	38.3955	Aqur	towns	cite	Badlīs/Bidlīs	cornu2
38.98556	36.13571	Aqur	towns	cite	Bāǧarwān	cornu2
42.758	36.47417	Aqur	towns	cite	Balad	cornu2
39.3345	37.75537	Aqur	waystations	etape	Bāmaqarā/Bāmaqdaŧ ?	cornu2
42.07551	36.95274	Aqur	towns	cite	Barqaʿīd	cornu2
39.87384	35.65809	Aqur	villages	localite	Bīrā	cornu2
41.25352	36.38728	Aqur	waters	lac	Buḥayraŧ Ḫātūniyyaŧ	cornu2
40.94689	37.18527	Aqur	towns	cite	Dārā	cornu2
41.1598	34.33397	Aqur	waystations	etape	Dāziqī	cornu2
40.67909	37.84795	Aqur	regions	circonscription	Diyār Bakr	cornu2
38.98256	36.56338	Aqur	regions	circonscription	Diyār Muḍar	cornu2
41.99451	36.65368	Aqur	regions	circonscription	Diyār Rabīʿaŧ	cornu2
37.17675	37.17638	Aqur	towns	cite	Dulūk	cornu2
40.58146	37.16749	Aqur	villages	localite	Dunaysīr	cornu2
40.13133	35.32381	Aqur	waystations	etape	Fam Nahr Saʿīd	cornu2
42.43096	37.04735	Aqur	towns	cite	Fayšābūr	cornu2
42.51884	37.36064	Aqur	sites	montagne	Ǧabal al-Ǧūdī	cornu2
39.61765	37.92941	Aqur	waystations	etape	Ǧarnān ?	cornu2
42.19943	37.28521	Aqur	regions	territoire	Ǧazīraŧ Ibn ʿUmar	cornu2
38.22057	36.67173	Aqur	towns	ville	Ǧisr Manbiǧ	cornu2
38.91048	37.41051	Aqur	waystations	etape	Ǧullāb	cornu2
42.80477	37.06628	Aqur	waters	riviere	Ḫābūr al-Ḥasaniyyaŧ	cornu2
40.85162	34.54577	Aqur	waystations	etape	Ḫalīǧ Banū Ǧumayʿ	cornu2
39.08906	36.88438	Aqur	towns	cite	Ḥarrān	cornu2
41.42113	37.70021	Aqur	towns	cite	Ḥiṣn Kayfā	cornu2
38.05966	37.82371	Aqur	sites	placefrontiere	Ḥiṣn Manṣūr	cornu2
39.07106	36.38728	Aqur	towns	cite	Ḥiṣn Maslamaŧ	cornu2
39.2247	38.75874	Aqur	sites	forteresse	Ḥiṣn Ziyād	cornu2
40.42704	36.98749	Aqur	towns	cite	Kafartūṯā	cornu2
39.02492	39.58627	Aqur	sites	placefrontiere	Kamaḫ/Kamāḫ	cornu2
42.9635	36.81597	Aqur	towns	cite	Maʿlaṯāyaŧ	cornu2
38.35767	38.35806	Aqur	towns	cite	Malaṭīn/Malaṭiyaŧ 	cornu2
42.55713	39.1437	Aqur	towns	cite	Malāzkird/Malāzǧird/Manāzǧird	cornu2
37.98957	36.54651	Aqur	towns	cite	Manbiǧ	cornu2
36.92987	37.58314	Aqur	sites	placefrontiere	Marʿaš	cornu2
40.71117	37.30186	Aqur	towns	cite	Mārdīn	cornu2
43.26652	36.14235	Aqur	towns	cite	Marǧ Ǧuhaynaŧ/Mar Ǧuhaynaŧ	cornu2
41.00798	38.14322	Aqur	towns	cite	Mayyāfāriqīn	cornu2
43.055	36.63683	Aqur	villages	localite	Mazāriʿī ?	cornu2
40.75934	35.74173	Aqur	towns	cite	Mīkisīn/Maykisīn/Mākisīn	cornu2
39.09656	36.11754	Aqur	waters	riviere	Nahr al-Balīḫ	cornu2
40.08449	38.07602	Aqur	waters	riviere	Nahr al-Ḏīb/Nahr al-Kilāb	cornu2
40.73502	35.50335	Aqur	waters	riviere	Nahr al-Ḫābūr	cornu2
41.24817	37.1308	Aqur	waters	riviere	Nahr al-Hirmās	cornu2
41.97905	37.88869	Aqur	waters	riviere	Nahr al-Razb/al-Razm/al-Zarm	cornu2
40.22779	38.77905	Aqur	waters	riviere	Nahr Arsanās	cornu2
43.60422	34.69499	Aqur	waters	riviere	Nahr Diǧlaŧ	cornu2
43.04545	35.00028	Aqur	waters	riviere	Nahr Ṯarṯār	cornu2
41.22167	37.05514	Aqur	towns	cite	Naṣībīn	cornu2
43.175	36.35104	Aqur	towns	cite	Nīnawá/Nūnawā	cornu2
38.53819	39.05271	Aqur	sites	placefrontiere	Qalʿaŧ Ibrīq	cornu2
40.43747	35.1462	Aqur	towns	cite	Qarqīsiyyaŧ	cornu2
40.3276	37.40829	Aqur	waystations	etape	Qaṣr Ibn Nāziʿ/Qaṣr Banū Nāziʿ ?	cornu2
38.19495	37.49466	Aqur	towns	ville	Qaṣr Sanǧaŧ/Sanǧaŧ ?	cornu2
37.68027	37.43156	Aqur	towns	cite	Raʿbān	cornu2
40.45784	34.98817	Aqur	towns	cite	Raḥbaŧ Malik Ibn Ṭawq	cornu2
40.06404	36.83758	Aqur	towns	cite	Raʾs al-ʿAyn	cornu2
40.56071	38.57565	Aqur	sites	forteresse	Ribāṭ Ḏū al-Qarnayn	cornu2
38.43806	36.9791	Aqur	regions	territoire	Sarūǧ	cornu2
38.4104	35.8566	Aqur	sites	lieu	Ṣiffīn ?	cornu2
39.83119	38.61412	Aqur	sites	placefrontiere	Šimšāṭ	cornu2
41.89101	36.32446	Aqur	towns	cite	Sinǧār	cornu2
40.58767	35.24207	Aqur	towns	cite	Sukayr al-ʿAbbās	cornu2
38.54365	37.54334	Aqur	towns	cite	Sumaysāṭ	cornu2
40.76153	36.16114	Aqur	towns	cite	Ṭābān/Ṭalabān	cornu2
38.72906	36.69218	Aqur	waystations	etape	Tall ʿAbdā ?	cornu2
42.49401	36.36312	Aqur	towns	cite	Tall Aʿfar	cornu2
41.78238	37.72559	Aqur	towns	cite	Tall Fāfān/ʿAyn Tall Fāfān	cornu2
41.34352	36.9815	Aqur	villages	localite	Tall Farāšaŧ	cornu2
39.75447	38.19784	Aqur	towns	cite?	Tall Ḥūm	cornu2
39.13855	36.61998	Aqur	towns	cite	Tall Maḥrá/Tall Baḥrá ?	cornu2
39.7655	37.22748	Aqur	towns	cite	Tall Mawzan	cornu2
42.64158	37.31295	Aqur	towns	cite	Ṯamānīn	cornu2
41.91628	37.78735	Aqur	villages	localite	Ṭanzaŧ	cornu2
40.87703	36.38969	Aqur	towns	cite	Tunānīr/Tunaynīr	cornu2
40.86321	37.40165	Aqur	regions	canton	Ṯūr ʿAbdīn	cornu2
40.42465	38.18191	Aqur	waters	riviere	Wādī al-Rams/al-Rass/Wādī Ṣalb	cornu2
40.92477	34.42004	Aqur	waystations	etape	Wādī al-Sibāʿ	cornu2
41.17006	37.9833	Aqur	waters	riviere	Wādī Masūliyāt/Nahr Sātīdamā/Wādī Sātīdamā	cornu2
41.49366	38.01078	Aqur	waters	riviere	Wādī Ṣarbaṭ/Nahr Ṣarbaṭ/Ṣarbaṭ	cornu2
43.87398	36.3752	Aqur	waters	riviere	Zāb al-Kabīr/Zāb al-Aʿlá	cornu2
44.10965	35.64182	Aqur	waters	riviere	Zāb al-Ṣaġīr/Zāb al-Asfal	cornu2
37.90461	38.09311	Aqur	sites	placefrontiere	Zibaṭraŧ	cornu2
41.21428	34.45727	Aqur/Iraq	waters	riviere	Nahr al-Furāt	cornu2
42.45438	31.86163	Badiyat al-Arab	waystations	etape	al-Abyaḍ	cornu9
42.97781	27.44255	Badiyat al-Arab	waystations	etape	al-Aǧfur	cornu9
37.4317	29.87858	Badiyat al-Arab	waystations	etape	al-Aǧwalī	cornu9
42.23928	32.28927	Badiyat al-Arab	waystations	etape	al-Aḫdamiyyaŧ	cornu9
36.79381	32.31179	Badiyat al-Arab	waystations	etape	al-Aʿnak	cornu9
43.61471	30.09074	Badiyat al-Arab	waystations	etape	al-ʿAqabaŧ	cornu9
37.83126	27.15186	Badiyat al-Arab	waystations	etape	al-Aqrāʿ	cornu7
36.92899	31.64055	Badiyat al-Arab	waystations	etape	al-ʿAwnīd	cornu9
36.87768	31.84612	Badiyat al-Arab	waystations	etape	al-Azraq	cornu9
37.32662	32.21167	Badiyat al-Arab	waystations	etape	al-Baqīʿaŧ	cornu9
41.46573	31.67372	Badiyat al-Arab	waystations	etape	al-Ǧamʿ	cornu9
38.12681	30.48436	Badiyat al-Arab	sites	mares	al-Ǧarbā/al-Ǧarbá	cornu9
40.18305	31.84948	Badiyat al-Arab	waystations	etape	al-Ǧubbaŧ/al-Maḥnaŧ	cornu9
37.19786	27.92136	Badiyat al-Arab	waystations	etape	al-Ǧunaynaŧ	cornu9
37.34142	31.36925	Badiyat al-Arab	towns	cite	al-Ġurrabaŧ	cornu9
43.99014	28.46139	Badiyat al-Arab	regions	region	al-Habīr	cornu9
39.6759	31.9977	Badiyat al-Arab	waystations	etape	al-Ḫafiyyaŧ	cornu9
41.37298	32.07507	Badiyat al-Arab	waystations	etape	al-Ḫalāṭ	cornu9
40.76716	31.48039	Badiyat al-Arab	waystations	etape	al-Ḫanfas/al-Ḥanfas/al-Ǧanfas	cornu9
39.82192	31.43199	Badiyat al-Arab	waystations	etape	al-Ḥašiyyaŧ	cornu9
40.70599	31.64853	Badiyat al-Arab	waystations	etape	al-Ḫaṭṭá	cornu9
42.07352	31.70731	Badiyat al-Arab	waystations	etape	al-Ḥusá/al-Ǧusá	cornu9
43.13666	27.91046	Badiyat al-Arab	waystations	etape	al-Ḫuzaymiyyaŧ	cornu9
42.21215	27.2743	Badiyat al-Arab	regions	region	al-Manhab	cornu9
44.00938	31.10097	Badiyat al-Arab	sites	puits	al-Muġīṯaŧ	cornu9
37.46327	27.73026	Badiyat al-Arab	waystations	etape	al-Muḥdaṯaŧ	cornu9
37.15494	31.51278	Badiyat al-Arab	waystations	etape	al-Muḥdaṯaŧ	cornu9
37.46475	31.21242	Badiyat al-Arab	sites	pointdeau	al-Nabk	cornu9
42.853	31.4989	Badiyat al-Arab	waystations	etape	al-Naḥīt	cornu9
44.45181	26.35812	Badiyat al-Arab	waystations	etape	al-Nibāǧ	cornu7
43.61126	29.78571	Badiyat al-Arab	waystations	etape	al-Qāʾ	cornu9
43.92995	26.08634	Badiyat al-Arab	waystations	etape	al-Qaryatayn	cornu9
39.59203	32.14778	Badiyat al-Arab	waystations	etape	al-Qulūfī/al-ʿAlawī	cornu9
41.7933	31.51068	Badiyat al-Arab	waystations	etape	al-Qurāy	cornu9
43.8229	31.9366	Badiyat al-Arab	waystations	etape	al-Quṭquṭānaŧ	cornu9
38.64087	32.03911	Badiyat al-Arab	waystations	etape	al-Rawārá/al-Dawārá	cornu9
43.95117	31.85995	Badiyat al-Arab	waystations	etape	al-Ruhaymaŧ	cornu9
37.98572	32.13274	Badiyat al-Arab	waystations	etape	al-Sāʿidaŧ	cornu9
43.41491	29.08495	Badiyat al-Arab	waystations	etape	al-Šuqūq	cornu9
43.16528	28.29472	Badiyat al-Arab	sites	forteresse	al-Ṯaʿlabiyyaŧ	cornu9
44.13666	31.49049	Badiyat al-Arab	villages	localite	al-Uḏayb	cornu9
38.71981	31.65819	Badiyat al-Arab	waystations	etape	al-Uǧayfir	cornu9
38.67294	29.99999	Badiyat al-Arab	sites	mares	ʿArfaǧāʾ	cornu9
37.965	30.86285	Badiyat al-Arab	regions	region	Baṭn al-Sirr	cornu9
43.27579	28.74899	Badiyat al-Arab	waystations	etape	Biṭān/Qabr al-ʿIdādī	cornu9
39.87767	29.75959	Badiyat al-Arab	villages	localite	Dawmaŧ al-Ǧandal	cornu9
42.50815	27.06977	Badiyat al-Arab	towns	cite	Fayd	cornu9
45.92797	28.41584	Badiyat al-Arab	waystations	etape	Ḥafar Abū Mūsá	cornu9
38.70747	29.01767	Badiyat al-Arab	sites	pointdeau	Muḫrī	cornu9
43.81303	30.87576	Badiyat al-Arab	sites	puits	Qarʿāʾ	cornu9
37.75187	31.32585	Badiyat al-Arab	waystations	etape	Qurākir/Qurāqir	cornu9
42.35028	27.2436	Badiyat al-Arab	regions	region	Salmā #?	cornu9
37.85153	33.72767	Badiyat al-Arab	waystations	etape	Suwá	cornu9
36.5062	28.37114	Badiyat al-Arab	towns	cite	Tabūk	cornu9
37.89149	28.87521	Badiyat al-Arab	sites	pointdeau	Ṯaǧr	cornu9
38.52	27.58081	Badiyat al-Arab	towns	cite	Taymāʾ	cornu9
36.70106	30.73317	Badiyat al-Arab	waystations	etape	Ubayr/Wubayr	cornu9
41.94575	27.05571	Badiyat al-Arab	regions	vallee	Wādī Ṭayy #?	cornu9
43.77652	30.55363	Badiyat al-Arab	sites	forteresse	Wāqisaŧ #	cornu9
43.5639	29.40521	Badiyat al-Arab	sites	forteresse	Zubālaŧ	cornu9
20.20218	30.46697	Barqa	towns	cite	Aǧdābiyyaŧ	cornu13
25.18308	31.42889	Barqa	waystations	etape	al-ʿAqabaŧ	cornu13
10.50881	33.55129	Barqa	waystations	etape	al-Fawwāraŧ ?	cornu13
16.44486	31.18315	Barqa	sites	site	al-Qaryatayn ?	cornu13
28.30167	30.84844	Barqa	waystations	etape	al-Ṭaḥūnaŧ	cornu13
17.72231	30.77615	Barqa	waystations	etape	al-Yahūdiyyatayn	cornu13
13.19209	32.87801	Barqa	towns	cite	Aṭrābulus/Ṭarābulus	cornu13
21.21413	28.95651	Barqa	regions	oasis	Awǧilaŧ	cornu13
11.63847	33.05675	Barqa	waystations	etape	Bārǧamt/Abār Daḫt ?	cornu13
20.08482	32.11419	Barqa	towns	cite	Barnīq	cornu13
20.84475	32.37576	Barqa	capitals	capitale	Barqaŧ	cornu13
20.84475	32.37576	Barqa	regions	circon	Barqaŧ	cornu13
29.30208	30.86496	Barqa	towns	cite	Ḏāt al-Ḥumām/Ḏāt al-Ḥammām	cornu11
9.47597	30.12935	Barqa	towns	cite	Ġadāmis	cornu13
23.96719	31.99027	Barqa	waystations	etape	Ǧiyād al-Ṣaġīr ?	cornu13
27.30318	31.04479	Barqa	waystations	etape	Ǧubb al-ʿAwsaǧ ?	cornu13
23.31692	32.18179	Barqa	waystations	etape	Ǧubb al-Maydān/Ǧubb al-Maydaʿān ?	cornu13
22.203	32.77902	Barqa	waystations	etape	Ḥalīmān/Ǧubb Ḥalīmān ?	cornu13
28.8519	30.80549	Barqa	waystations	etape	Ḥaniyyaŧ al-Rūm/Quṣūr al-Rūm	cornu13
25.51014	31.41576	Barqa	waystations	etape	Ḫarāʾib Abū Ḥalīmaŧ ?	cornu13
24.49433	31.87271	Barqa	waystations	etape	Ḥayy ʿAbd Allãh ?	cornu13
26.11423	31.35376	Barqa	waystations	etape	Ḫirbaŧ al-Qawm ?	cornu13
27.94768	30.91449	Barqa	waystations	etape	Kanāʾis al-Ḥadīd/Kanāʾis al-Ḥarīr ?	cornu13
16.22169	31.19302	Barqa	waystations	etape	Maġmadāš ?	cornu13
24.83486	31.67644	Barqa	waystations	etape	Marǧ al-Šayḫ ?	cornu13
10.08563	33.86603	Barqa	towns	cite	Qābis	cornu13
18.19751	30.54115	Barqa	waystations	etape	Qaṣr al-ʿAṭiš	cornu13
17.29329	30.94914	Barqa	waystations	etape	Qaṣr al-ʿIbādī/Qabr al-ʿIbādī	cornu13
26.37011	31.32418	Barqa	waystations	etape	Qaṣr al-Šammās	cornu13
15.87924	31.25883	Barqa	waystations	etape	Quṣūr Ḥassān ?	cornu13
27.61485	31.02336	Barqa	towns	cite	Ramādaŧ ?	cornu13
18.63423	29.78891	Barqa	regions	region	Sabḫaŧ Manhūšā	cornu13
12.48146	32.78822	Barqa	towns	cite	Ṣabraŧ	cornu13
26.77604	31.19426	Barqa	waystations	etape	Sikkaŧ al-Ḥammām ?	cornu13
20.24835	31.4018	Barqa	waystations	etape	Sulūq	cornu13
16.60839	31.09917	Barqa	towns	cite	Surt	cornu13
14.86251	31.98024	Barqa	villages	localite	Tawarġaŧ	cornu13
16.28326	28.96493	Barqa	regions	oasis	Waddān	cornu13
13.57504	32.73756	Barqa	waystations	etape	Wādī al-Raml	cornu13
22.62048	32.2648	Barqa	waters	wadi	Wādī Maḫīl	cornu13
14.78841	25.78099	Barqa	villages	localite	Zawīlaŧ/Zawīlaŧ b. al-Ḫaṭṭ_ab	cornu13
54.04327	37.02772	Daylam	towns	cite/port	Ābaskūn	cornu16
51.77466	35.42345	Daylam	villages	village	Afrīḏīn ?	cornu16
56.95205	37.51437	Daylam	villages	localite	Aǧġ	cornu16
55.71277	39.19825	Daylam	capitals	cheflieu	Āḫur	cornu16
54.37503	36.13093	Daylam	capitals	capitale	al-Damġān	cornu16
54.80181	36.2852	Daylam	villages	localite	al-Ḥaddādaŧ	cornu16
52.23414	36.56405	Daylam	towns	cite	Alham	cornu16
52.40859	35.26209	Daylam	regions	canton	al-Ḫuwār	cornu16
55.67094	36.39341	Daylam	waystations	etape	al-Murǧān ?	cornu16
51.7108	36.36237	Daylam	regions	region	al-Rūyān	cornu16
51.7108	36.36237	Daylam	towns	cite	al-Rūyān	cornu16
52.40859	36.42256	Daylam	capitals	capitale	Āmul	cornu16
52.21623	35.8734	Daylam	waystations	etape	Asak/Ašk	cornu16
54.47005	36.7886	Daylam	towns	cite	Astārabāḏ	cornu16
55.17875	36.33289	Daylam	waystations	etape	Baḏaš	cornu16
52.0667	35.81911	Daylam	waystations	etape	Balūr/Bulūr	cornu16
48.55981	37.57057	Daylam	towns	cite	Barwān ?	cornu16
54.72705	37.88855	Daylam	waystations	etape	Baylamak/Salmak ?	cornu16
55.07205	36.45952	Daylam	towns	cite	Bisṭām	cornu16
55.86992	36.05824	Daylam	towns	cite	Biyār	cornu16
50.52548	36.69592	Daylam	regions	region	Daylamān/al-Daylam	cornu16
55.63466	39.09457	Daylam	regions	region	Dihistān	cornu16
55.99881	37.57458	Daylam	waystations	etape	Dīnāzārī #?	cornu16
52.96387	35.61266	Daylam	regions	region	Fādūsbān/Qādūstān/Qādūsiyān 	cornu16
52.55968	36.01794	Daylam	sites	mont	Ǧabal Qārīn	cornu16
51.63759	36.0318	Daylam	sites	mont	Ǧabal Rūbanǧ/Ruyanǧ	cornu16
54.04249	35.97336	Daylam	waystations	etape	Ǧarmǧuwī	cornu16
49.65635	37.13924	Daylam	regions	region	Ǧīl/Ǧīlān	cornu16
55.206	37.19091	Daylam	regions	region	Ǧurǧān	cornu16
54.99028	37.33269	Daylam	regions	region	Ǧurǧān	cornu16
56.13276	36.36629	Daylam	waystations	etape	Hafdar ?	cornu16
49.18674	37.48626	Daylam	towns	cite	Ḫašm ?	cornu16
52.04412	35.31676	Daylam	waystations	etape	Kahdaŧ/Kahandaŧ/Kasb ?	cornu16
51.07686	36.49897	Daylam	towns	cite	Kalār	cornu16
49.00372	37.79153	Daylam	waystations	port/etape	Kuhanrūḏ	cornu16
52.74659	36.51713	Daylam	towns	cite	Māmaṭīr	cornu16
53.69593	36.68468	Daylam	villages	localite	Mihrawān ?	cornu16
52.55267	36.4708	Daylam	towns	cite	Mīlaŧ #?	cornu16
55.38357	37.06455	Daylam	waters	riviere	Nahr Ḫurmārūḏ	cornu16
49.67893	36.93549	Daylam	waters	riviere	Nahr Isbīḏrūḏ/Nahr Sabīḏrūḏ	cornu16
48.8394	36.97532	Daylam	waters	riviere	Nahr Isbīḏrūḏ/Nahr Sabīḏrūḏ	cornu16
50.19216	36.52902	Daylam	waters	riviere	Nahr Ṭālaqānrūḏ	cornu16
51.9273	35.72749	Daylam	waystations	etape	Nāmahand ?	cornu16
54.32519	36.77488	Daylam	towns	cite	Nāmiyaŧ ?	cornu16
51.91951	36.47768	Daylam	towns	cite	Nātil	cornu16
52.636	35.26209	Daylam	villages	localite	Qaryaŧ al-Milḥ	cornu16
54.13205	36.11206	Daylam	regions	region	Qūmis	cornu16
53.07601	35.37647	Daylam	villages	localite	Raʾs al-Kalb	cornu16
57.45149	40.18649	Daylam	sites	ribat	Ribāṭ Abū Sahl	cornu16
54.76443	37.58399	Daylam	sites	ribat	Ribāṭ al-Amīr ?	cornu16
54.51366	37.22611	Daylam	sites	ribat	Ribāṭ ʿAlī ?	cornu16
53.73487	35.74424	Daylam	sites	ribat	Rībāṭ ʿAliyyābāḏ	cornu16
54.61471	38.26671	Daylam	sites	ribat	Ribāṭ Dihistān	cornu16
54.88904	36.8176	Daylam	sites	ribat	Ribāṭ Ḥafṣ ?	cornu16
55.206	37.19091	Daylam	metropoles	metropole	Šahrastān/Ǧurǧān	cornu16
51.35722	36.39749	Daylam	towns	cite	Saʿīdābāḏ	cornu16
52.04723	35.68449	Daylam	towns	cite	Šalanbaŧ	cornu16
51.45535	36.60408	Daylam	towns	cite	Šālūs/Sālūs	cornu16
52.86652	36.16111	Daylam	towns	cite	Šihmār/Sihmār ?	cornu16
53.40856	35.49513	Daylam	towns	cite	Simnān	cornu16
52.60329	36.34732	Daylam	regions	circon	Ṭabaristān	cornu16
50.84322	36.18658	Daylam	regions	region	Ṭalaqān ?	cornu16
50.84322	36.18658	Daylam	towns	cite	Ṭalaqān ?	cornu16
54.05573	36.7312	Daylam	towns	cite	Ṭamīšaŧ/Ṭamīsaŧ	cornu16
55.30802	36.65798	Daylam	waystations	etape	Ziradābāḏ/Zirdābāḏ	cornu16
31.7988	26.47449	Egypt	villages	localite	Abšāyaŧ ?	cornu10
32.38039	30.05828	Egypt	waystations	etape	ʿAǧarūd	cornu10
31.72957	26.56301	Egypt	towns	cite	Aḫmīm	cornu10
30.95992	29.13124	Egypt	towns	cite	Ahnās	cornu10
31.70644	30.53647	Egypt	towns	cite	al-ʿAbbāsiyyaŧ	cornu10
34.09472	17.49927	Egypt	villages	localite	al-Abwāb	cornu11
30.91239	31.19144	Egypt	regions	region	al-Afrāḥūn	cornu10
32.61253	25.72063	Egypt	towns	cite	al-Aqṣūr	cornu10
33.80807	31.12453	Egypt	towns	cite	al-ʿArīš	cornu1
31.25278	31.19181	Egypt	regions	district	al-Awsiyaŧ	cornu10
30.52845	30.89835	Egypt	regions	region	al-Badaqūn	cornu10
33.12566	31.02385	Egypt	towns	cite	al-Baqqāraŧ	cornu11
31.23342	31.28817	Egypt	regions	region	al-Bašarūd	cornu10
30.92804	30.72039	Egypt	towns	cite	al-Bundāriyyaŧ	cornu10
28.73902	25.54178	Egypt	regions	region	al-Dāḫilaŧ	cornu11
31.60625	26.5449	Egypt	regions	district	al-Dayr/Dayr Bū Šanūdaŧ	cornu10
32.59811	31.02282	Egypt	capitals	capitale	al-Faramā	cornu10
30.69978	29.43447	Egypt	capitals	capitale	al-Fayyūm	cornu10
30.84266	29.35921	Egypt	regions	territoire	al-Fayyūm	cornu10
30.25325	19.63029	Egypt	sites	cataracte	al-Ǧanādil	cornu11
32.92462	24.01605	Egypt	sites	cataracte	al-Ǧanādil	cornu11
31.21122	30.04436	Egypt	quarter	quartier	al-Ǧazīraŧ	cornu10
33.23727	30.75519	Egypt	regions	region	al-Ǧifār	cornu11
31.20183	30.00653	Egypt	towns	cite	al-Ǧīzaŧ	cornu10
30.89161	30.34164	Egypt	villages	village	al-Ǧurasiyyāt	cornu10
30.51687	24.98738	Egypt	regions	region	al-Ḫāriǧaŧ	cornu11
30.43738	30.75268	Egypt	regions	region	al-Ḥawf al-Ġarbī	cornu10
31.57495	30.59137	Egypt	regions	circon	al-Ḥawf al-Šarqī	cornu10
29.90981	31.1949	Egypt	capitals	capitale	al-Iskandariyyaŧ	cornu10
30.13142	31.14286	Egypt	towns	cite	al-Karyūn/Kiryawn	cornu10
30.99122	29.24901	Egypt	towns	cite	al-Lāhūn	cornu10
32.87404	23.01969	Egypt	towns	cite	ʿAllaqī	cornu11
30.37989	31.24231	Egypt	regions	region	al-Malīdās/al-Malaydis	cornu10
32.05366	30.18702	Egypt	villages	localite	al-Manṣaf	cornu10
32.3556	15.06046	Egypt	waters	riviere	al-Nīl al-Abyaḍ	cornu11
31.24168	30.05778	Egypt	quarter	quartier	al-Qāhiraŧ	cornu10
32.32461	30.85902	Egypt	villages	localite	al-Qanṭaraŧ	cornu10
32.93994	23.86056	Egypt	villages	localite	al-Qaṣr	cornu11
28.83405	25.67032	Egypt	villages	localite	al-Qaṣr	cornu11
31.24253	30.0154	Egypt	villages	localite	al-Qaṣr/Bāb Alyūn	cornu10
30.78687	28.52624	Egypt	towns	cite	al-Qays	cornu10
32.55684	30.02822	Egypt	towns	cite	al-Qulzum	cornu10
30.73593	30.6947	Egypt	villages	localite	al-Rāfiqaŧ	cornu10
30.6995	31.04306	Egypt	villages	localite	al-Ṣāfiyyaŧ	cornu10
33.43051	19.40078	Egypt	villages	localite	al-Sanṭaŧ ?	cornu11
30.57342	30.99062	Egypt	regions	region	al-Širāk	cornu10
30.75576	27.85616	Egypt	towns	cite	al-Ušmūnayn	cornu10
29.46855	26.524	Egypt	regions	region	al-Wāḥāt	cornu11
33.54242	31.06734	Egypt	towns	cite	al-Warrādaŧ	cornu11
30.84685	27.90125	Egypt	towns	cite	Anṣinā	cornu10
32.51795	25.64017	Egypt	towns	cite	Armant	cornu10
32.55162	25.32189	Egypt	towns	cite	Asnā	cornu10
31.18485	27.17922	Egypt	towns	cite	Asyūṭ	cornu10
31.29974	29.43347	Egypt	towns	cite	Aṭfīḥ	cornu10
32.87999	25.01203	Egypt	regions	district	Atfū	cornu10
31.74628	30.70963	Egypt	regions	region	Aṭrabiyyaŧ	cornu10
31.17223	30.45947	Egypt	regions	district	Atrīb	cornu10
31.17223	30.45947	Egypt	towns	cite	Atrīb	cornu10
31.30514	31.00708	Egypt	towns	cite	Awīš	cornu10
36.24428	22.48899	Egypt	sites	port	ʿAyḏab	cornu11
31.3077	30.12919	Egypt	towns	cite	ʿAyn Šams	cornu10
30.75642	30.87466	Egypt	towns	cite	Babīǧ	cornu10
39.48117	15.63308	Egypt	regions	ile	Bāḍiʿ	cornu7
30.66449	28.60073	Egypt	regions	region	Bahnasá	cornu10
30.28697	32.20303	Egypt	waters	mer	Baḥr al-Rūm	cornu11
31.60503	19.72554	Egypt	regions	region	Balad al-Nūbaŧ	cornu11
30.46299	31.28513	Egypt	towns	cite	Balhīb	cornu10
31.16142	30.43641	Egypt	towns	cite	Banhā al-ʿAsal	cornu10
28.83711	28.28725	Egypt	regions	oasis	Banhasá ?	cornu11
30.29934	31.08146	Egypt	towns	cite	Barsīq	cornu10
31.49925	30.56736	Egypt	regions	district	Basṭaŧ	cornu10
31.02025	30.85291	Egypt	regions	region	Baṭn al-Rīf	cornu10
30.50461	24.59152	Egypt	towns	cite	Bayrīs	cornu11
37.0673	19.28058	Egypt	regions	region	Bilād al-Buǧǧaŧ	cornu11
34.14753	14.94825	Egypt	regions	region	Bilād al-Ḥabašaŧ	cornu11
32.94356	23.99294	Egypt	regions	ile	Bilāq/Ablāq	cornu11
31.57097	30.41776	Egypt	capitals	capitale	Bilbays	cornu10
30.78887	30.62076	Egypt	towns	cite	Bistāmaŧ	cornu10
30.80708	31.4596	Egypt	waters	lac	Buḥayraŧ al-Burullus	cornu10
29.91455	31.12142	Egypt	waters	lac	Buḥayraŧ Maryūṭ	cornu10
31.99133	31.25935	Egypt	waters	lac	Buḥayraŧ Tinnīs	cornu10
31.9959	26.21922	Egypt	towns	cite	Bulyanā	cornu10
29.71572	30.93264	Egypt	waystations	etape	Būmīnaŧ/Būmīná ?	cornu13
31.93498	30.09522	Egypt	waystations	etape	Bunduqaŧ/Manzil Ibn Bunduqaŧ/Manzil Ibn Ṣadaqaŧ	cornu10
30.99606	31.58612	Egypt	towns	cite	Burullus/Barullus	cornu10
31.10677	29.27633	Egypt	towns	cite	Būṣīr/Būṣīr al-Fayyūm/Abūṣīr/Būṣīr Qūrīdus/Būṣīr al-Ašmūnayn	cornu10
31.22681	27.10901	Egypt	towns	cite	Būtīǧ	cornu10
31.57979	30.16955	Egypt	waystations	etape	Buwayb	cornu10
31.16142	29.21524	Egypt	towns	cite	Dalāṣ/Dilāṣ	cornu10
30.45872	31.03855	Egypt	towns	cite	Damanhūr	cornu10
31.3504	31.1414	Egypt	towns	cite	Damīraŧ/Dumayraŧ	cornu10
31.22403	30.82041	Egypt	regions	district	Damsīs	cornu10
31.22403	30.82041	Egypt	towns	cite	Damsīs	cornu10
32.64544	26.15778	Egypt	regions	district	Dandaraŧ	cornu10
30.51137	30.95938	Egypt	villages	localite	Danšāl	cornu10
31.66289	31.28355	Egypt	towns	cite	Daqahlaŧ	cornu10
31.01228	30.22134	Egypt	waystations	etape	Ḏāt al-Sāḥil	cornu10
33.05753	31.14397	Egypt	waystations	etape	Dayr al-Naṣārá/Ḥiṣn al-Naṣārá/al-Qaṣr	cornu11
30.44535	31.25059	Egypt	towns	cite	Dayrūṭ	cornu10
30.70519	31.01916	Egypt	towns	cite	Dayyāy	cornu10
31.1062	30.37013	Egypt	towns	cite	Diǧwaŧ	cornu10
31.79125	31.43739	Egypt	towns	cite	Dimyāṭ	cornu10
30.73756	18.04347	Egypt	towns	cite	Dunqalaŧ/Dunqulaŧ/Dumqulaŧ	cornu11
31.79581	30.71061	Egypt	towns	cite	Fāqūs	cornu10
33.67254	28.67926	Egypt	regions	district/oasis	Fārān	cornu11
28.20107	26.96368	Egypt	regions	region	Farfārūn	cornu11
30.66905	30.9872	Egypt	villages	localite	Farnwaŧ	cornu10
31.649	26.69354	Egypt	villages	localite	Fāw	cornu10
30.49999	31.13129	Egypt	villages	village	Fīšaŧ	cornu10
30.92633	30.76345	Egypt	villages	village	Fīšaŧ Ibn Sulaym	cornu10
31.24964	30.04325	Egypt	metropoles	metropole	Fusṭāṭ	cornu10
30.50654	31.2237	Egypt	towns	cite	Fuwaŧ	cornu10
31.31852	30.01368	Egypt	sites	mont	Ǧabal Muqaṭṭam	cornu10
31.51348	30.38241	Egypt	towns	cite	Ġayfā	cornu10
31.38569	30.1607	Egypt	sites	lieu	Ǧubb ʿAmīraŧ	cornu10
32.19454	30.91373	Egypt	towns	cite	Ǧurǧīr	cornu10
30.15818	31.10144	Egypt	waters	canal	Ḫalīǧ al-Iskandariyyaŧ	cornu10
31.79922	30.57863	Egypt	waters	canal	Ḫalīǧ Amīr al-Muʾminīn	cornu10
31.65521	30.93839	Egypt	waters	riviere	Ḫalīǧ Daqādūs	cornu10
31.55816	31.11972	Egypt	waters	riviere	Ḫalīǧ Sardūs	cornu10
30.66535	30.75281	Egypt	regions	district	Ḫaribtā	cornu10
32.29854	26.02153	Egypt	towns	cite	Hū	cornu10
31.29831	29.86015	Egypt	towns	cite	Ḥulwān	cornu10
31.8311	31.0155	Egypt	regions	region	Iblīl	cornu10
30.65681	31.46786	Egypt	regions	region	Iḫnā	cornu10
30.79	31.51979	Egypt	towns	cite?	Iḫnā/Aǧnā ?	cornu10
32.8863	23.12192	Egypt	waystations	etape	Kubān/Qubbān	cornu11
30.75642	30.63742	Egypt	waystations	etape	Kūm Šarīk	cornu10
33.35835	22.61001	Egypt	sites	mines	Maʿādin al-Tibr	cornu11
33.89324	25.07556	Egypt	sites	mines	Maʿādin al-Zumurruḏ	cornu11
30.61583	31.02501	Egypt	villages	village	Maḥallaŧ Abū Ḫurāšaŧ #?	cornu10
31.14662	30.97329	Egypt	towns	cite	Maḥallaŧ al-Kabīraŧ	cornu10
30.92349	30.79572	Egypt	towns	cite	Maḥallaŧ al-Maḥrūm	cornu10
30.70804	30.78411	Egypt	villages	village	Maḥallaŧ Nuqaydaŧ	cornu10
30.8512	30.96963	Egypt	villages	localite	Maḥallaŧ Ṣurad	cornu10
31.01342	30.58083	Egypt	towns	cite	Malīǧ	cornu10
31.25648	29.85447	Egypt	towns	ville	Manf/al-ʿAzīziyyaŧ	cornu10
30.9195	30.45505	Egypt	towns	cite	Manūf	cornu10
30.95223	30.8705	Egypt	regions	district	Manūf al-ʿUliyā	cornu10
32.46943	18.06095	Egypt	regions	region	Maqurraŧ/Muqurraŧ	cornu11
30.93987	20.35618	Egypt	regions	region	Marīs	cornu11
30.47836	31.11959	Egypt	regions	region	Maṣīl	cornu10
31.37174	30.36522	Egypt	towns	cite	Maštūl	cornu10
30.97785	31.05159	Egypt	villages	localite	Misīr	cornu10
30.94294	21.75496	Egypt	waters	riviere	Nahr al-Nīl	cornu11
32.74002	25.22987	Egypt	waters	riviere	Nahr al-Nīl	cornu10
31.00602	28.89131	Egypt	waters	riviere	Nahr al-Nīl	cornu10
30.70804	31.48776	Egypt	towns	cite	Nastarāwaŧ/Nastarāw	cornu10
31.37316	30.69837	Egypt	regions	region	Naṭwayaŧ/Naṭw al-Rummān	cornu10
31.28494	30.97866	Egypt	regions	district	Nawasā	cornu10
28.92294	25.44771	Egypt	villages	localite	Qalamūn	cornu11
30.44108	31.05659	Egypt	villages	localite	Qarṭasā	cornu10
31.47498	26.94253	Egypt	villages	localite	Qaw/Qahqāwaŧ/Qahqaŧ ?	cornu10
32.80433	25.99671	Egypt	regions	district	Qifṭ/Qufṭ	cornu10
32.73283	26.17068	Egypt	regions	district	Qinā	cornu10
30.82245	30.86818	Egypt	villages	localite	Qulayb al-`Ummāl	cornu10
31.62447	30.73556	Egypt	regions	district	Qurbayt	cornu10
32.74342	25.91848	Egypt	towns	cite	Qūṣ	cornu10
34.27748	26.10673	Egypt	villages	localite	Quṣayr	cornu11
30.37989	31.41298	Egypt	towns	cite	Rašīd	cornu10
30.73849	30.95914	Egypt	villages	localite	Ṣāʾ	cornu10
30.72312	31.08986	Egypt	regions	district	Šabās	cornu10
31.24225	30.11048	Egypt	towns	cite	Šabruwā/Šubrū	cornu10
30.73365	30.80318	Egypt	villages	localite	Šābūr	cornu10
30.92519	31.08645	Egypt	towns	cite	Ṣaḫā	cornu10
31.26672	30.65235	Egypt	villages	localite	Ṣahraǧāt	cornu10
31.24509	30.94986	Egypt	regions	district	Samannūd	cornu10
31.87265	30.9789	Egypt	regions	district	Ṣān	cornu10
30.47267	31.19071	Egypt	towns	cite	Sanbāḏaŧ	cornu10
31.16426	30.9689	Egypt	towns	cite	Ṣandafā	cornu10
30.47608	31.25387	Egypt	villages	localite	Sandiyūn	cornu10
30.70832	31.16283	Egypt	towns	cite	Sanhūr	cornu10
31.18645	30.16277	Egypt	towns	cite	Sardūs ?	cornu10
31.87094	31.40557	Egypt	towns	cite	Šaṭā	cornu10
31.06351	30.23314	Egypt	towns	cite	Šaṭnūf	cornu10
32.55275	15.48074	Egypt	villages	localite	Sūbaŧ	cornu11
31.05262	30.43271	Egypt	villages	localite	Subk al-ʿAbīd	cornu10
30.88762	28.96006	Egypt	towns	cite	Sumusṭā	cornu10
37.33032	19.11304	Egypt	villages	localite	Suwākin	cornu11
32.54404	29.97325	Egypt	villages	localite	Suways	cornu10
30.69125	28.27313	Egypt	towns	cite	Ṭaḥā	cornu10
31.54194	31.04233	Egypt	towns	cite	Tanā	cornu10
30.7011	27.76484	Egypt	towns	cite	Tandaŧ	cornu10
31.10165	30.27628	Egypt	villages	localite	Tantītā/Ṭant	cornu10
30.78944	30.67267	Egypt	villages	localite	Ṭanūb/Ṭunūb	cornu10
30.81078	30.40094	Egypt	villages	localite	Tarnūṭ	cornu10
31.0897	30.6876	Egypt	towns	cite	Ṭaṭāʾ	cornu10
30.827	31.23866	Egypt	regions	district	Tīdaŧ	cornu10
33.80128	29.16755	Egypt	regions	desert	Tīh Banū Isrāʾil #	cornu11
32.22755	31.21262	Egypt	towns	cite	Tinnīs	cornu10
31.51063	30.94376	Egypt	regions	district	Ṭumayy	cornu10
32.0824	31.16442	Egypt	towns	cite	Tūnaŧ	cornu10
33.95454	28.35876	Egypt	sites	mont	Ṭūr Sīnāʾ	cornu11
30.93316	30.68075	Egypt	regions	district	Ṭuwwaŧ	cornu10
32.98745	24.46534	Egypt	towns	cite	Unbuwā/Unbuw	cornu11
32.98286	24.10701	Egypt	capitals	capitale	Uswān	cornu11
34.10934	22.13452	Egypt	waters	wadi	Wādī ʿAllaqī	cornu11
32.97579	22.98246	Egypt	waters	wadi	Wādī ʿAllāqī	cornu10
31.10905	30.12144	Egypt	sites	port	Wasīm	cornu10
31.21094	30.70718	Egypt	towns	cite	Ziftā Ǧawād	cornu10
53.73617	29.7821	Faris	towns	cite	Ābāḏaŧ	cornu6
52.66127	31.1643	Faris	capitals	cite	Ābāḏaŧ/Arǧumān	cornu6
55.25395	30.88547	Faris	towns	cite	Abān	cornu6
53.25737	31.15094	Faris	towns	cite	Abarqūh	cornu6
52.94703	28.28084	Faris	villages	localite	Abzar ?	cornu6
52.36712	30.03958	Faris	towns	cite	al-Bayḍāʾ/Nasā	cornu6
54.624	31.76601	Faris	towns	cite	al-Fahraǧ	cornu6
54.07735	28.88371	Faris	regions	canton	al-Fustuǧān/al-Fustukān/al-Bustaǧān	cornu6
54.07735	28.88371	Faris	towns	cite	al-Fustuǧān/al-Fustukān/al-Bustaǧān	cornu6
51.26065	29.22327	Faris	towns	cite	al-Ġundiǧān	cornu6
51.94541	30.04859	Faris	waystations	etape	al-Ḫarrāraŧ	cornu6
54.04351	29.10684	Faris	towns	ville	al-Iṣbahānāt/Iṣṭahbānān	cornu6
54.29861	28.72175	Faris	towns	cite	al-Māḏawan	cornu6
54.39753	28.80847	Faris	villages	localite	al-Murayziǧān	cornu6
53.44663	29.12318	Faris	waystations	etape	al-Ribāṭ	cornu6
56.02186	30.39947	Faris	regions	territoire	al-Rūḏān	cornu6
56.02186	30.39947	Faris	towns	cite	al-Rūḏān	cornu6
52.44	30.7491	Faris	regions	region	al-Rūn	cornu6
53.13182	28.69941	Faris	towns	cite	al-Ṣīmakān	cornu6
52.62743	31.1799	Faris	regions	region	Arǧumān	cornu6
50.29766	30.6103	Faris	capitals	capitale	Arrāǧān	cornu6
52.17709	31.51558	Faris	waystations	etape	Azkās	cornu6
53.38985	26.11223	Faris	waters	mer	Baḥr Fāris	cornu6
51.1775	30.39947	Faris	regions	region	Balā Sābūr	cornu6
53.43209	27.88081	Faris	waystations	etape	Bārāb	cornu6
52.62743	31.1799	Faris	regions	region	Barm	cornu6
53.6192	30.46456	Faris	towns	cite	Bawwān	cornu6
51.11281	29.92934	Faris	regions	region	Bazranǧ	cornu6
52.68133	28.69894	Faris	waystations	etape	Biyābšūrāb/Dašt Šūrāb?	cornu6
53.97836	29.33096	Faris	waters	lac	Buḥayraŧ al-Baḫtikān	cornu6
53.47044	29.697	Faris	waters	lac	Buḥayraŧ al-Bāšfūyaŧ/ Buḥayraŧ al-Bāšfūriyyaŧ#	cornu6
51.83196	29.5028	Faris	waters	lac	Buḥayraŧ Kāzarūn	cornu6
51.2582	30.30738	Faris	villages	pont/bourgade/etape	Daḫwīd/Darḫīḏ	cornu6
54.54591	28.75143	Faris	capitals	capitale	Darābaǧird	cornu6
54.27779	28.83127	Faris	waystations	etape	Dārakān	cornu6
52.92548	29.54062	Faris	waystations	etape	Dāriyān	cornu6
51.54129	29.66188	Faris	towns	cite	Darīz	cornu6
51.94222	29.6096	Faris	villages	localite	Dašt Arzan	cornu6
51.26816	29.28011	Faris	regions	canton	Dašt Bārīn	cornu6
55.70689	30.31412	Faris	towns	cite	Dih Ušturān/Qaryaŧ al-Ǧimāl ?	cornu6
53.06569	29.97467	Faris	towns	cite	Fārūq	cornu6
53.63181	28.92193	Faris	towns	cite	Fasā	cornu6
55.16805	28.31921	Faris	towns	cite	Furǧ	cornu6
51.81266	31.19326	Faris	waystations	etape	Ǧaʿfarābāḏ ?	cornu6
54.18928	28.85635	Faris	towns	cite	Ǧāh Zandāyaŧ ?	cornu6
53.51012	28.51826	Faris	towns	cite	Ǧahram	cornu6
52.39133	27.8168	Faris	villages	localite	Ǧamm	cornu6
50.53898	29.60089	Faris	towns	cite	Ǧannābaŧ	cornu6
51.78402	30.09815	Faris	villages	localite	Ǧarkān/Ḫarkān/Karkān/al-Karǧān ?	cornu6
54.7906	28.6007	Faris	waystations	etape	Ǧarmwaŧ	cornu6
50.33529	29.23531	Faris	regions	ile	Ǧazīraŧ Ḫarak	cornu6
55.80019	26.74974	Faris	regions	ile	Ǧazīraŧ Laft/Ǧazīraŧ Barkāwān/Ǧazīraŧ Banū Kāwān	cornu6
53.44398	29.79117	Faris	waystations	etape	Ǧūbānan	cornu6
50.84951	30.29389	Faris	towns	cite	Ǧunbaḏ Mallaġān/Ǧunbaḏ Mallaǧān	cornu6
52.58324	28.84797	Faris	towns	cite	Ǧūr/Bayrūzābāḏ	cornu6
52.29587	29.87379	Faris	villages	village	Ǧuwaym	cornu6
53.94661	28.14336	Faris	villages	village	Ǧuwaym Abū Aḥmad #	cornu6
53.27732	28.76436	Faris	towns	cite	Ḫabr	cornu6
52.22036	29.5682	Faris	waystations	etape	Ḫān al-Asad	cornu6
52.8858	29.31712	Faris	villages	village	Ḫān Mīm	cornu6
52.02871	31.25559	Faris	waystations	etape	Ḫān Rūšan/Ḫān Awīs/Ḫuwāriš 	cornu6
54.41315	30.11392	Faris	towns	cite	Harāŧ	cornu6
51.30575	29.54859	Faris	towns	cite	Ḫašt	cornu6
54.40794	28.5161	Faris	capitals	cheflieu	Ḫasū	cornu6
51.50809	30.24443	Faris	villages	localite	Ḫawāḏān/Ḫawrāwāḏān/Ḫawrābāḏān/Ḫūbaḏān	cornu6
54.09036	29.95166	Faris	waystations	etape	Ḫawaristān	cornu6
53.20589	29.25713	Faris	towns	cite	Ḫawaristān/Sarwistān	cornu6
53.93868	29.25944	Faris	villages	localite	Ḫayār/Ḫayr/Ḫayraŧ	cornu6
52.49428	29.94029	Faris	towns	cite	Hazār/Azār Sābūr ?	cornu6
51.30074	29.39151	Faris	villages	localite	Hindūǧān/Hindīǧān	cornu6
49.70675	30.25118	Faris	towns	cite	Hinduwān/Hindīǧān	cornu6
54.90122	26.57451	Faris	sites	citadelle	Ḥiṣn Ibn ʿUmāraŧ/Qalʿaŧ Ibn ʿUmāraŧ	cornu6
52.19005	29.98842	Faris	waystations	etape	Ḫullār/Ḫullān	cornu6
51.44858	30.01617	Faris	regions	region	Ḫumayǧān	cornu6
51.39095	28.66191	Faris	regions	region	Ḫurmuq	cornu6
53.33817	29.54292	Faris	towns	cite	Ḫurrāmaŧ	cornu6
51.9773	29.22327	Faris	towns	cite	Ḫurraŧ	cornu6
52.48426	30.5027	Faris	waystations	etape	Ḫūsikān	cornu6
52.67168	30.91897	Faris	villages	localite	Iqlīd	cornu6
52.92548	29.97008	Faris	capitals	capitale	Iṣṭaḫr	cornu6
54.24655	28.98623	Faris	towns	cite	Iyǧ/Iyk	cornu6
54.67346	29.16368	Faris	towns	cite	Kadruwā	cornu6
52.49957	29.50609	Faris	waystations	etape	Kafrah/Kafr	cornu6
53.1975	30.2849	Faris	waystations	etape	Kahamandaŧ/Kihmand/Kamahank	cornu6
51.92199	30.72449	Faris	villages	localite	Kallār	cornu6
53.16886	29.88067	Faris	waystations	etape	Kalwaḏār/Qalwaḏar/Qaryaŧ al-Ḥammām ?	cornu6
51.90116	30.50943	Faris	regions	region	Kām Fayrūz	cornu6
53.16106	30.17019	Faris	regions	district	Kamīn	cornu6
53.16106	30.17019	Faris	villages	bourgade	Kamīn	cornu6
53.12982	30.73791	Faris	towns	cite	Karaŧ	cornu6
54.21531	28.26649	Faris	waystations	etape	Karb ?	cornu6
51.69552	31.79256	Faris	waystations	etape	Karū	cornu6
53.70323	28.05935	Faris	waystations	etape	Kāryān	cornu6
53.11293	28.40599	Faris	villages	localite	Kārzin	cornu6
53.70323	29.36324	Faris	waystations	etape	Kaṯ	cornu6
51.68412	29.60743	Faris	towns	cite	Kāzarūn	cornu6
52.36569	28.41977	Faris	waystations	etape	Kīrand ?	cornu6
51.51373	29.57692	Faris	towns	ville	Kumāriǧ	cornu6
52.86193	27.76342	Faris	towns	cite	Kurān ?	cornu6
51.9324	30.69092	Faris	waystations	etape	Kūrd/Kūrad ?	cornu6
53.608	29.07233	Faris	towns	cite	Kurm	cornu6
52.69768	29.21962	Faris	waystations	etape	Kuwār	cornu6
50.73914	31.53831	Faris	towns	cite	Lūrdaǧān/al-Lūriǧān	cornu4
52.2805	28.05331	Faris	waystations	etape	Mah/Má ?	cornu6
50.21436	30.06436	Faris	towns	cite	Mahrūbān	cornu6
52.63784	30.18595	Faris	towns	cite	Maʾīn/Maʿīn #?	cornu6
51.91938	31.44454	Faris	sites	site	Mās ?	cornu6
53.98932	32.27744	Faris	towns	cite	Maybuḏ #	cornu6
52.21353	30.39049	Faris	waystations	etape	Mihrǧānāwāz	cornu6
52.85141	28.88488	Faris	towns	cite	Mīmand	cornu6
52.86431	30.60582	Faris	towns	cite	Muškān	cornu6
52.64171	27.34352	Faris	villages	localite	Nāband	cornu6
51.12283	28.49687	Faris	regions	region	Naǧīram	cornu6
51.76932	29.326	Faris	waters	riviere	Nahr Ǧarsīq/Nahr Ǧaršīq	cornu6
51.42853	29.64228	Faris	waters	riviere	Nahr Sābūr	cornu6
53.13563	28.52387	Faris	waters	riviere	Nahr Sakkān	cornu6
54.27518	29.21368	Faris	capitals	territoire	Nayrīz	cornu6
54.27518	29.21368	Faris	regions	territoire	Nayrīz	cornu6
51.55235	30.12743	Faris	towns	cite	Nūbandaǧān/Nūbanǧān	cornu6
51.64606	30.15444	Faris	sites	citadelle	Qalʿaŧ al-Ǧiṣṣ ?	cornu6
52.67428	30.09815	Faris	sites	citadelle	Qalʿaŧ Saʿīdābāḏ	cornu6
53.92036	29.69008	Faris	sites	citadelle	Qaryaŧ al-Ās	cornu6
53.84828	31.55774	Faris	waystations	etape	Qaryaŧ al-Asad #	cornu6
52.80644	29.37477	Faris	waystations	etape	Qaryaŧ al-Rummān	cornu6
53.18449	30.63942	Faris	villages	bourgade	Qaryaŧ Bīḏ/Bīḏ/Qaryaŧ al-Ḫillāf	cornu6
53.0309	30.13418	Faris	waystations	etape	Qaryaŧ Ibn Bundār	cornu6
52.44521	30.82066	Faris	towns	cite/etape	Qaṣr Aʿīn/Qaṣr Āyīn/al-Rūn	cornu6
53.03724	28.44621	Faris	regions	canton	Qīr/Kīr	cornu6
51.86732	32.00251	Faris	waystations	etape	Qūmisaŧ	cornu6
54.70209	30.12067	Faris	waystations	etape	Rāḏān/Dāḏān ?	cornu6
52.74824	29.7751	Faris	villages	localite	Rakān	cornu6
53.78841	30.00577	Faris	waystations	etape	Raʾs al-Dunyā ?	cornu6
52.87257	29.7751	Faris	sites	barrage	Raʾs al-Sikr	cornu6
56.28286	26.96505	Faris	towns	cite	Raʾs Kišm	cornu6
52.67152	28.52097	Faris	waystations	etape	Rāykān/Ḫān Azādmard ?	cornu6
50.22217	30.34108	Faris	villages	localite	Rīšahr	cornu6
50.51371	30.44661	Faris	xroads	rPoint	RoutePoints0699	cornu6
54.40794	28.5161	Faris	regions	territoire	Rūbanǧ	cornu6
55.10037	28.4795	Faris	towns	cite	Rustāq	cornu6
51.96103	31.80584	Faris	waystations	etape	Rūzkān ?	cornu6
55.05872	30.13418	Faris	towns	cite	Šābābak/Šābāwak/Šahrbābāk	cornu6
51.51624	29.83157	Faris	regions	circonscription	Sābūr/Šahrastān	cornu6
54.30902	29.77106	Faris	towns	cite?	Ṣahīh/Ṣāhik	cornu6
50.80266	30.74015	Faris	villages	village?	Ṣāhik	cornu6
50.4613	29.96408	Faris	waystations	etape?	Ṣāḥik	cornu6
51.51624	29.83157	Faris	capitals	capitale	Šahrastān/Sābūr	cornu6
50.38864	29.74023	Faris	waystations	etape	Sanǧāhān ?	cornu6
50.42781	30.9971	Faris	regions	region	Sardān	cornu6
52.79142	31.05956	Faris	towns	cite	Sarmaq/al-Surmaq	cornu6
52.43219	31.42233	Faris	towns	cite	Sarwīstān/Sarūrīr	cornu6
54.75943	26.77937	Faris	regions	region	Sīf ʿUmāraŧ	cornu6
50.27838	29.92283	Faris	towns	cite	Sīnīz/Šīnīz	cornu6
52.34306	27.69666	Faris	capitals	capitale	Sīrāf	cornu6
52.52867	29.61884	Faris	metropoles	metropole	Šīrāz	cornu6
51.81266	31.35567	Faris	waystations	etape	Sumayram	cornu6
56.21348	27.19067	Faris	towns	cite	Sūrū	cornu6
53.81699	28.94971	Faris	towns	cite	Ṭabistān/Ṭamistān/Ṭimāristān ?	cornu6
55.80841	28.18163	Faris	towns	cite	Tārim/Tārum	cornu6
51.17294	29.42208	Faris	towns	cite	Tawwaz/Tawwaǧ !?	cornu6
51.03513	29.44172	Faris	towns	cite	Tawwaz/Tawwaǧ ?!	cornu6
51.92718	29.86635	Faris	regions	region	Tīr Mardān	cornu6
55.98281	30.24893	Faris	towns	cite	Ūnas ?	cornu6
53.66217	32.40568	Faris	towns	ville	ʿUqdaŧ	cornu6
51.99227	30.77818	Faris	regions	canton	Ūrd #?	cornu6
51.99227	30.77818	Faris	towns	cite	Ūrd #?	cornu6
54.34286	31.90975	Faris	regions	territoire	Yazd/Kaṯaŧ	cornu6
54.34286	31.90975	Faris	towns	cite	Yazd/Kaṯaŧ	cornu6
54.43137	28.33754	Faris	towns	cite	Yazdaḫawāst	cornu6
54.85047	29.41342	Faris	waystations	etape	Zarūdūwaŧ	cornu6
50.39397	30.51616	Faris	towns	cite	Zaytūn/Zaytān/Firzuk #?	cornu6
53.22441	29.83708	Faris	waystations	etape	ZiyādābāḏZiyādāwāḏ ?	cornu6
44.93375	33.20675	Iraq	towns	cite	ʿAbartā	cornu3
48.27394	30.33563	Iraq	towns	cite	ʿAbbādān	cornu3
47.33731	31.46283	Iraq	towns	cite	ʿAbdās	cornu3
47.99265	30.43759	Iraq	towns	cite	Abū al-Ḫaṣīb	cornu3
43.7015	33.39492	Iraq	towns	cite	al-Anbār	cornu3
47.71735	30.40147	Iraq	capitals	capitale	al-Baṣraŧ	cornu3
45.29796	31.98716	Iraq	regions	region	al-Baṭāʾiḥ/al-Baṭīḥaŧ	cornu3
43.80541	34.46814	Iraq	towns	cite	al-Dūr	cornu3
46.58171	31.83729	Iraq	waystations	etape	al-Fārūṯ	cornu3
44.43704	32.48152	Iraq	towns	cite	al-Ǧāmiʿān/al-Ǧāmiʿayn	cornu3
45.01502	33.97686	Iraq	towns	cite	al-Hārūniyya/Ṭarastān	cornu3
44.36286	31.97375	Iraq	towns	ville	al-Ḫawarnaq	cornu3
44.37232	32.01734	Iraq	towns	ville	al-Ḥīraŧ	cornu3
44.35293	33.31703	Iraq	quarter	quartier	al-Karḫ	cornu3
43.87468	34.29663	Iraq	villages	localite	al-Karḫ	cornu3
44.39355	32.03808	Iraq	capitals	capitale	al-Kūfaŧ	cornu3
44.59672	33.09075	Iraq	towns	cite	al-Madāʾīn	cornu3
47.37621	31.48197	Iraq	towns	cite	al-Maḏār	cornu3
44.59405	33.43161	Iraq	towns	cite	al-Nahrawān	cornu3
42.61179	33.82317	Iraq	waystations	etape	al-Nāwusaŧ	cornu3
44.89011	32.511	Iraq	towns	cite	al-Nīl	cornu3
45.4265	32.59694	Iraq	towns	cite	al-Nuʿmāniyyaŧ/Tall Nuʿmān	cornu3
44.18717	31.65292	Iraq	towns	cite	al-Qādisiyyaŧ	cornu9
43.98259	34.09388	Iraq	waystations	etape	al-Qādisiyyaŧ	cornu3
46.62959	31.71519	Iraq	sites	site	al-Qaṭr	cornu3
43.26055	33.46273	Iraq	villages	localite	al-Rabb	cornu3
46.3645	31.78987	Iraq	sites	site	al-Ruṣāfaŧ	cornu3
44.06385	33.41382	Iraq	waystations	etape	al-Saylaḥīn ?	cornu3
44.8461	32.97916	Iraq	towns	cite	al-Sīb	cornu3
46.77226	32.19607	Iraq	towns	cite	al-Sikr ?	cornu3
43.46591	35.26076	Iraq	towns	cite	al-Sinn	cornu2
43.60292	34.81448	Iraq	waystations	etape	al-Sūdaqāniyyaŧ	cornu3
44.08916	34.02656	Iraq	towns	cite	ʿAlṯ / al-ʿAlṯ	cornu3
47.30428	32.22674	Iraq	towns	cite	al-Ṭīb	cornu3
47.83555	30.49692	Iraq	towns	cite	al-Ubullaŧ	cornu3
44.18108	33.34374	Iraq	sites	tall	ʿAqarqūf	cornu3
43.52574	32.62337	Iraq	towns	cite	ʿAyn al-Tamr	cornu3
44.26367	33.81321	Iraq	towns	cite	Aywānaŧ/Awānaŧ/Uwānaŧ	cornu3
44.42281	32.57211	Iraq	towns	cite	Bābil	cornu3
45.93688	33.09968	Iraq	regions	canton	Bādarāyā ?	cornu3
44.54578	32.25849	Iraq	regions	canton	Badāŧ/Budāŧ	cornu3
46.59233	32.17087	Iraq	towns	cite	Bāḏibīn ?	cornu3
44.21572	33.37712	Iraq	regions	canton	Bādūrayā	cornu3
44.35693	33.35932	Iraq	metropoles	metropole	Baġdād	cornu3
44.63801	33.73126	Iraq	towns	cite	Bāǧisrá	cornu3
46.46935	32.94441	Iraq	regions	canton	Bākusāyā	cornu3
45.48927	33.71797	Iraq	towns	cite	Bandanīǧān/Bandanīǧīn	cornu3
44.65666	33.76006	Iraq	towns	cite	Baʿqūbā/Bāqūbaŧ	cornu3
44.36092	33.50829	Iraq	towns	cite	Baradān	cornu3
43.57361	35.07982	Iraq	waystations	etape	Bārimmā	cornu3
48.03005	30.46468	Iraq	towns	cite	Bayān ?	cornu3
44.64201	33.70578	Iraq	towns	cite	Buwahriz	cornu3
44.46217	35.13976	Iraq	villages	localite	Daqūqāʾ	cornu3
44.9231	33.94151	Iraq	towns	cite	Daskaraŧ/Daskaraŧ al-Malik	cornu3
44.9846	32.91181	Iraq	towns	cite	Dayr al-ʿĀqūl	cornu3
44.70196	33.60709	Iraq	waystations	etape	Dayr Bāzamaŧ / Dayr Tīrmaŧ ?	cornu3
43.78276	33.33483	Iraq	towns	cite	Dimimmā	cornu3
44.3076	32.55902	Iraq	regions	canton	Fallūǧaŧ	cornu3
46.1315	32.46405	Iraq	towns	cite	Fam al-Ṣilḥ	cornu3
43.8984	34.8037	Iraq	sites	mont	Ǧabal Bārimmā	cornu2
43.88401	34.93688	Iraq	sites	montagne	Ǧabal Bārimmā	cornu3
45.72633	32.55466	Iraq	towns	cite	Ǧabbūl	cornu3
43.72814	34.62614	Iraq	waystations	etape	Ǧabiltā/Ǧabultā	cornu3
45.11759	34.17989	Iraq	towns	cite	Ǧalūlā	cornu3
45.31987	32.74104	Iraq	towns	cite	Ǧarǧarāyā	cornu3
44.36973	32.87594	Iraq	waystations	etape	Ǧisr Kūṯá	cornu3
44.36585	32.64626	Iraq	towns	cite	Ǧisr Sūrā/Ǧisr Sūrān ?	cornu3
44.34773	32.39084	Iraq	towns	cite	Ḥammām Ibn ʿUmar ?	cornu3
45.44708	34.34844	Iraq	towns	cite	Ḫāniqīn	cornu3
44.18508	33.95808	Iraq	towns	cite	Ḥarbá	cornu3
42.80628	33.6437	Iraq	towns	cite	Hīt	cornu3
45.93468	34.47862	Iraq	capitals	capitale	Ḥulwān	cornu3
44.43153	33.30144	Iraq	regions	canton	Kalwāḏá	cornu3
44.03706	32.61792	Iraq	towns	cite	Karbalāʾ	cornu3
46.41887	32.32633	Iraq	regions	circonscription	Kaskar	cornu3
44.62604	32.75737	Iraq	towns	cite	Kūṯá Rabbaŧ	cornu3
47.47945	31.41304	Iraq	regions	canton	Maysān	cornu3
44.33826	31.98379	Iraq	villages	localite	Naǧāf	cornu3
47.04854	30.98302	Iraq	waters	canal	Nahr Abī al-Asad	cornu3
44.20922	32.74321	Iraq	waters	canal	Nahr al-ʿAlqamī	cornu3
47.55725	30.86237	Iraq	waters	cours	Nahr al-ʿAwrā	cornu3
44.36455	33.05406	Iraq	villages	village	Nahr al-Malik	cornu3
44.50953	32.94875	Iraq	waters	canal	Nahr al-Malik ?	cornu3
47.6964	30.49305	Iraq	waters	canal	Nahr al-Maʿqil	cornu3
44.97772	33.09856	Iraq	waters	canal	Nahr al-Nahrawān	cornu3
45.10369	32.53829	Iraq	waters	canal	Nahr al-Nīl	cornu3
44.44618	33.97797	Iraq	waters	canal	Nahr al-Qāṭūl	cornu3
47.8146	30.4105	Iraq	waters	canal	Nahr al-Ubullaŧ	cornu3
46.46676	32.54047	Iraq	waters	riviere	Nahr Diǧlaŧ	cornu3
44.13579	33.26692	Iraq	waters	canal	Nahr ʿIsá	cornu3
44.72053	32.7443	Iraq	waters	canal	Nahr Kūṯá	cornu3
45.96969	32.49681	Iraq	towns	cite	Nahr Sābus	cornu3
44.14778	33.13984	Iraq	waters	canal	Nahr Ṣarṣar	cornu3
44.44611	32.54156	Iraq	waters	canal	Nahr Sūrā	cornu3
44.34902	32.70401	Iraq	towns	cite	Qaṣr Ibn Hubayraŧ ?	cornu3
45.62659	34.49996	Iraq	villages	localite	Qaṣr Šīrīn	cornu3
44.24636	33.39714	Iraq	regions	canton	Qaṭrabbul	cornu3
47.70188	32.17254	Iraq	towns	cite	Qurqūb ?	cornu3
44.36844	32.24535	Iraq	waystations	etape	Šāhī/Sāhī ?	cornu3
43.88134	34.20964	Iraq	capitals	capitale	Sāmarrāʾ	cornu3
44.37025	33.10972	Iraq	villages	village	Ṣarṣar/Ǧisr Ṣarṣar	cornu3
44.29724	32.48043	Iraq	villages	localite	Sūq Asad ?	cornu3
43.69617	34.59215	Iraq	towns	cite	Takrīt	cornu3
44.22504	33.85526	Iraq	towns	cite	ʿUkbarā	cornu3
46.32308	32.19497	Iraq	capitals	capitale	Wāsiṭ	cornu3
46.54442	13.67538	Jazirat al-Arab	regions	region	Aḥwar	cornu7
46.61972	13.56967	Jazirat al-Arab	towns	cite	Aḥwar	cornu7
39.09484	23.22814	Jazirat al-Arab	waystations	etape	al-Abwāʾ	cornu7
50.8587	19.38865	Jazirat al-Arab	regions	region	al-Aḥqāf	cornu7
49.54137	25.34929	Jazirat al-Arab	capitals	capitale	al-Aḥsāʾ	cornu7
35.57504	28.06253	Jazirat al-Arab	towns	ville	al-Aʿrāʾ	cornu7
39.20944	23.85851	Jazirat al-Arab	sites	montee	al-ʿArǧ	cornu7
35.99173	27.00533	Jazirat al-Arab	towns	cite	al-ʿAwnīd	cornu7
44.07861	25.98495	Jazirat al-Arab	waystations	etape	al-ʿAwsaǧaŧ	cornu7
37.01435	26.79044	Jazirat al-Arab	waystations	etape	al-Bayḍāʾ	cornu7
53.39087	23.69448	Jazirat al-Arab	regions	region	al-Baynūnaŧ	cornu7
41.92466	23.22544	Jazirat al-Arab	waystations	etape	al-Daṯīnaŧ/Dafīnaŧ	cornu7
46.55875	22.14096	Jazirat al-Arab	regions	region	al-Falaǧ	cornu7
42.45066	23.54101	Jazirat al-Arab	waystations	etape	al-Falǧaŧ ?	cornu7
41.28101	21.44752	Jazirat al-Arab	waystations	etape	al-Futuq ?	cornu7
40.84007	21.89675	Jazirat al-Arab	sites	aiguade	al-Ġamraŧ ?	cornu7
38.50713	23.8182	Jazirat al-Arab	towns	cite	al-Ǧār	cornu7
41.07197	21.733	Jazirat al-Arab	waystations	etape	al-Ǧudad ?	cornu7
39.12422	22.60833	Jazirat al-Arab	towns	cite	al-Ǧuḥfaŧ	cornu7
48.37368	28.54666	Jazirat al-Arab	waystations	etape	al-Ḥadūṯaŧ ?	cornu7
49.94102	24.72896	Jazirat al-Arab	regions	region	al-Haǧar	cornu7
41.75129	25.9691	Jazirat al-Arab	waystations	etape	al-Ḥāǧir	cornu7
46.73212	24.64352	Jazirat al-Arab	capitals	capitale	al-Ḥaǧr	cornu7
35.03845	29.27449	Jazirat al-Arab	waystations	etape	al-Ḥaql	cornu7
47.26694	23.77518	Jazirat al-Arab	regions	region	al-Ḫarǧ	cornu7
37.33759	25.0302	Jazirat al-Arab	towns	cite	al-Ḥawrāʾ	cornu7
39.56795	22.38571	Jazirat al-Arab	villages	localite	al-Ḫaym/Ḫaym Umm Maʿbad/Qudayd	cornu7
39.02138	23.51137	Jazirat al-Arab	regions	region	al-Ḥiǧāz	cornu7
46.72918	24.881	Jazirat al-Arab	regions	region	al-ʿIrḍ ?	cornu7
40.33707	20.18053	Jazirat al-Arab	waystations	etape	al-Līṯ	cornu7
39.60908	24.47782	Jazirat al-Arab	towns	cite	al-Madīnaŧ/Madīntaŧ al-Nabī/Yaṯrib	cornu7
43.54039	17.60657	Jazirat al-Arab	villages	localite	al-Mahǧaraŧ ?	cornu7
38.58647	25.71785	Jazirat al-Arab	towns	cite	al-Marwaŧ/Ḏū al-Marwaŧ	cornu7
40.79626	22.44276	Jazirat al-Arab	waystations	etape	al-Mislaḥ	cornu7
36.24739	26.71435	Jazirat al-Arab	waystations	etape	al-Nabk	cornu7
57.66352	22.68969	Jazirat al-Arab	towns	cite	al-Qalʿaŧ	cornu7
46.88787	27.45084	Jazirat al-Arab	waystations	etape	al-Qarʿaŧ	cornu7
49.96159	26.53966	Jazirat al-Arab	towns	cite	al-Qaṭīf	cornu7
49.50023	26.90449	Jazirat al-Arab	waystations	etape	al-Qurá	cornu7
51.97155	23.61911	Jazirat al-Arab	regions	region	al-Sabḫaŧ #?	cornu7
38.95085	24.03308	Jazirat al-Arab	villages	village	al-Ṣafrāʾ	cornu7
35.41578	27.85039	Jazirat al-Arab	waystations	etape	al-Ṣalā	cornu7
41.22235	24.34402	Jazirat al-Arab	waystations	etape	al-Salīlaŧ	cornu7
47.21404	26.78388	Jazirat al-Arab	regions	region	al-Ṣammān	cornu7
49.5998	14.76671	Jazirat al-Arab	towns	cite/port	al-Šiḥr	cornu7
56.82897	23.0552	Jazirat al-Arab	towns	cite	al-Sirr	cornu7
40.76268	19.83698	Jazirat al-Arab	sites	port	al-Sirrayn	cornu7
41.51032	22.44819	Jazirat al-Arab	waystations	etape	al-Šubaykaŧ	cornu7
45.37745	23.64065	Jazirat al-Arab	regions	region	al-Sudd #?	cornu7
40.35548	23.28483	Jazirat al-Arab	towns	cite	al-Suwāriqiyyaŧ	cornu7
39.03019	25.04884	Jazirat al-Arab	villages	localite	al-Suwaydāʾ/al-Suwaydiyyaŧ	cornu7
40.40566	21.21629	Jazirat al-Arab	towns	cite	al-Ṭāʾif	cornu7
39.79161	21.53869	Jazirat al-Arab	sites	miqat	al-Tanʿīm	cornu7
46.32366	24.02771	Jazirat al-Arab	regions	region	al-Ṯaniyyaŧ	cornu7
40.02342	24.59544	Jazirat al-Arab	waystations	etape	al-Ṭarafaŧ/al-Ṭaraf	cornu7
43.19302	18.1711	Jazirat al-Arab	waystations	etape	al-Ṯuǧǧaŧ ?	cornu7
40.75512	23.02816	Jazirat al-Arab	waystations	etape	al-Ufayʿiyyaŧ	cornu7
40.99902	24.01161	Jazirat al-Arab	waystations	etape	al-ʿUmaq	cornu7
50.22312	25.5589	Jazirat al-Arab	towns	cite	al-ʿUqayr	cornu7
40.79626	25.04085	Jazirat al-Arab	villages	localite	al-ʿUsaylaŧ	cornu7
36.5001	26.29359	Jazirat al-Arab	waystations	etape	al-Waǧh	cornu7
40.98726	22.03204	Jazirat al-Arab	waystations	etape	al-Waǧraŧ	cornu7
46.73506	24.08674	Jazirat al-Arab	regions	region	al-Yamāmaŧ	cornu7
40.20316	21.32282	Jazirat al-Arab	villages	village	ʿArafāt	cornu7
48.72446	27.68528	Jazirat al-Arab	waystations	etape	ʿArfaǧaŧ ?	cornu7
41.23862	19.80364	Jazirat al-Arab	regions	region	ʿAšam	cornu7
40.68003	21.733	Jazirat al-Arab	waystations	etape	Awṭās ?	cornu7
35.19783	28.1703	Jazirat al-Arab	waystations	etape	ʿAynūnaŧ	cornu7
36.74694	27.03413	Jazirat al-Arab	waystations	etape	Badāʾ Yaʿqūb	cornu7
38.80098	23.72676	Jazirat al-Arab	towns	cite	Badr	cornu7
39.48379	19.02737	Jazirat al-Arab	waters	mer	Baḥr al-Qulzum	cornu7
42.7829	19.20706	Jazirat al-Arab	sites	site	Banāt Ǧarm/Banāt Ḥarm/Banāt Ḥarb ?	cornu7
40.00579	24.85968	Jazirat al-Arab	regions	region	Baṭn al-Naḫl #?	cornu7
39.73935	21.64499	Jazirat al-Arab	villages	localite	Baṭn Marr	cornu7
42.69682	20.04402	Jazirat al-Arab	regions	region	Bīšaŧ	cornu7
42.62594	19.93935	Jazirat al-Arab	waystations	etape	Bīšaŧ	cornu7
56.22657	25.59071	Jazirat al-Arab	towns	cite	Dabā	cornu7
35.78604	27.3269	Jazirat al-Arab	waystations	etape	Ḍabbā/Ẓabbā	cornu7
40.07137	15.69528	Jazirat al-Arab	regions	ile	Dahlak	cornu7
56.30591	23.53023	Jazirat al-Arab	towns	cite	Ḍank	cornu7
50.19373	26.28437	Jazirat al-Arab	waystations	etape	Dārīn	cornu7
42.86206	24.64886	Jazirat al-Arab	waystations	etape	Ḍariyyaŧ	cornu7
40.42853	21.62677	Jazirat al-Arab	villages	localite	Ḏāt ʿIrq	cornu7
40.96521	19.5605	Jazirat al-Arab	villages	localite	Dawqaŧ	cornu7
39.56501	24.40558	Jazirat al-Arab	villages	village	Ḏū al-Ḥulayfaŧ	cornu7
39.29172	24.72896	Jazirat al-Arab	waystations	etape	Ḏū Ḫušub ?	cornu7
39.374	25.24834	Jazirat al-Arab	villages	localite	Fadak	cornu7
40.43179	21.10664	Jazirat al-Arab	sites	mont	Ǧabal Ǧazwān/Ǧabal Ġazwān #?	cornu7
39.59145	24.64886	Jazirat al-Arab	sites	mont	Ǧabal Uḥud	cornu7
42.99135	24.09211	Jazirat al-Arab	waystations	etape	Ǧadīlaŧ ?	cornu7
39.1779	21.46201	Jazirat al-Arab	towns	cite	Ǧuddaŧ	cornu7
55.98855	25.75227	Jazirat al-Arab	towns	cite	Ǧullafār	cornu7
42.44873	18.77618	Jazirat al-Arab	regions	region	Ǧuraš	cornu7
42.69682	18.63711	Jazirat al-Arab	towns	cite	Ǧuraš	cornu7
42.71961	19.51994	Jazirat al-Arab	waystations	etape	Ǧusadāʾ ?	cornu7
38.85976	25.46077	Jazirat al-Arab	towns	cite	Ḥaḏaŧ	cornu7
48.80405	15.64792	Jazirat al-Arab	regions	region	Ḥaḍramawt	cornu7
55.85631	23.89613	Jazirat al-Arab	towns	cite	Ḥafīt	cornu7
41.39305	18.62751	Jazirat al-Arab	towns	cite	Ḥalī	cornu7
50.65214	24.74231	Jazirat al-Arab	waystations	etape	Ḥamaḍ ?	cornu7
39.26821	25.78667	Jazirat al-Arab	towns	cite	Ḫaybar	cornu7
37.93999	26.86125	Jazirat al-Arab	towns	cite	Ḥiǧr Ṣāliḥ/al-Ḥiǧr	cornu7
43.29934	20.06543	Jazirat al-Arab	regions	region	Huǧayraŧ	cornu7
39.41808	22.10557	Jazirat al-Arab	towns	cite	Ḫulayṣ	cornu7
43.1471	25.37319	Jazirat al-Arab	waystations	etape	Immaraŧ ?	cornu7
47.92209	29.29998	Jazirat al-Arab	waystations	etape	Kāẓimaŧ	cornu7
36.07695	27.50168	Jazirat al-Arab	regions	oasis	Kilābaŧ/Kilāyaŧ	cornu7
41.8722	20.55409	Jazirat al-Arab	waystations	etape?	Kudayy ?	cornu7
42.98036	18.48351	Jazirat al-Arab	regions	mikhlaf	Kuṯbaŧ/Kuṯnaŧ	cornu7
41.52796	25.5536	Jazirat al-Arab	waystations	etape	Maʿdin al-Naqiraŧ	cornu7
35.07298	28.47663	Jazirat al-Arab	waystations	etape	Madyan Šuʿayb	cornu7
39.83612	21.39132	Jazirat al-Arab	metropoles	metropole	Makkaŧ	cornu7
39.45628	24.29047	Jazirat al-Arab	waystations	etape	Malal	cornu7
58.63618	23.5437	Jazirat al-Arab	towns	cite	Masqaṭ	cornu7
58.11018	22.61105	Jazirat al-Arab	towns	cite	Milaḥ	cornu7
39.93206	21.35325	Jazirat al-Arab	towns	cite	Miná	cornu7
41.4016	25.00091	Jazirat al-Arab	waystations	etape	Muġīṯaŧ al-Māwān/al-Muġīṯaŧ	cornu7
49.98216	26.18157	Jazirat al-Arab	waystations	etape	Musayliḥaŧ ?	cornu7
44.2995	17.58603	Jazirat al-Arab	towns	cite	Naǧrān	cornu7
57.52541	22.86309	Jazirat al-Arab	towns	cite	Nazwaŧ	cornu7
41.15761	19.12337	Jazirat al-Arab	waystations	etape	Qanawnaŧ	cornu7
40.21296	21.46576	Jazirat al-Arab	towns	cite	Qarn/Qarn al-Manāzil	cornu7
51.21928	24.95829	Jazirat al-Arab	regions	region	Qaṭar	cornu7
39.58264	24.44572	Jazirat al-Arab	villages	village	Qubā	cornu7
41.65725	22.78726	Jazirat al-Arab	villages	village	Qubāʾ ?	cornu7
39.57789	21.41489	Jazirat al-Arab	villages	localite	Qurayn	cornu7
37.99288	26.55412	Jazirat al-Arab	capitals	cheflieu	Qurḥ	cornu7
41.30169	24.66756	Jazirat al-Arab	waystations	etape	Rabaḏaŧ	cornu7
43.4292	25.77608	Jazirat al-Arab	waystations	etape	Rāmaŧ ?	cornu7
42.1041	20.30924	Jazirat al-Arab	villages	village	Ranyaŧ	cornu7
38.05459	25.06481	Jazirat al-Arab	waystations	etape	Raʾs al-ʿAyn ?	cornu7
39.2976	24.11893	Jazirat al-Arab	waystations	etape	Rawḥāʾ	cornu7
36.48835	27.67097	Jazirat al-Arab	regions	region	Ruḥbaŧ/Raḥabaŧ	cornu7
39.23589	24.01966	Jazirat al-Arab	waystations	etape	Ruwayṯaŧ	cornu7
41.68929	20.85351	Jazirat al-Arab	waystations	etape?	Ṣafr ?	cornu7
36.47366	27.19891	Jazirat al-Arab	waystations	etape	Saġb	cornu7
57.96619	22.71138	Jazirat al-Arab	towns	cite	Samad	cornu7
42.03339	26.41998	Jazirat al-Arab	waystations	etape	Samīrāʾ	cornu7
46.92186	15.24886	Jazirat al-Arab	waters	wadi	Šanuwaŧ/Sanūʾaŧ #	cornu7
35.19783	28.9426	Jazirat al-Arab	waystations	etape	Šaraf Ḏū al-Naml/Šaraf al-Baʿl	cornu7
43.43742	17.85975	Jazirat al-Arab	waystations	etape?	Šarūraŧ ?	cornu7
39.35343	24.19669	Jazirat al-Arab	waystations	etape	Sayyālaŧ	cornu7
56.69086	24.35205	Jazirat al-Arab	capitals	capitale	Ṣuḥār	cornu7
47.35509	24.15648	Jazirat al-Arab	waystations	etape	Sulaymaŧ ?	cornu7
39.23295	23.58141	Jazirat al-Arab	waystations	etape	Suqyāʾ Banū Ġifār #?	cornu7
38.35433	26.15916	Jazirat al-Arab	towns	cite	Suqyāʾ Yazīd/al-Suqyāʾ	cornu7
42.41439	20.04558	Jazirat al-Arab	waystations	etape	Tabālaŧ	cornu7
42.51067	17.58374	Jazirat al-Arab	regions	region	Tihāmaŧ	cornu7
43.01192	24.95296	Jazirat al-Arab	waystations	etape	Ṭiḫfaŧ ?	cornu7
55.77403	24.19401	Jazirat al-Arab	towns	cite	Tuʾām	cornu7
41.57497	21.0975	Jazirat al-Arab	regions	mikhlaf	Turabaŧ	cornu7
41.6403	21.25283	Jazirat al-Arab	villages	localite	Turabaŧ	cornu7
42.29198	26.71435	Jazirat al-Arab	waystations	etape	Tūz	cornu7
56.45284	23.82088	Jazirat al-Arab	regions	circon	ʿUmān	cornu7
39.46144	21.88079	Jazirat al-Arab	sites	aiguade	ʿUsfān	cornu7
50.56693	26.11827	Jazirat al-Arab	regions	ile	Uwāl	cornu7
40.29083	24.11089	Jazirat al-Arab	waters	wadi	Wādī al-ʿAqīq	cornu7
38.29849	25.67549	Jazirat al-Arab	waters	wadi	Wādī al-Qurá	cornu7
39.0919	23.06872	Jazirat al-Arab	waters	wadi	Wādī Furʿ	cornu7
41.48925	19.08509	Jazirat al-Arab	waters	wadi	Wādī Yabaŧ	cornu7
42.82847	18.87682	Jazirat al-Arab	waystations	etape	Yabambam/Yabanbam	cornu7
48.95073	23.29563	Jazirat al-Arab	regions	region	Yabrīn #?	cornu7
40.08231	20.84741	Jazirat al-Arab	waystations	etape	Yalamlam	cornu7
38.12512	24.1082	Jazirat al-Arab	towns	cite/port	Yanbuʿ	cornu7
49.23473	36.15722	Jibal	towns	cite	Abhar	cornu16
50.05422	33.62812	Jibal	waystations	etape	Abtiʿaŧ	cornu5
49.64019	33.39951	Jibal	towns	cite	al-Burǧ	cornu5
49.54697	33.88116	Jibal	capitals	cheflieu	al-Karaǧ/Karaǧ Abū Dulaf	cornu5
49.54697	33.88116	Jibal	regions	territoire	al-Karaǧ/Karaǧ Abū Dulaf	cornu5
46.22379	34.30577	Jibal	waystations	etape	al-Marǧ/Marǧ al-Qalʿaŧ ?	cornu5
51.50831	35.62754	Jibal	capitals	capitale	al-Rayy	cornu16
47.40829	33.14964	Jibal	capitals	cheflieu	al-Ṣaymaraŧ	cornu5
46.86539	33.52303	Jibal	towns	cite	al-Sīrawān/al-Šīrāwān	cornu5
46.4404	34.16749	Jibal	towns	cite	al-Ṭazar	cornu5
46.85168	34.23099	Jibal	waystations	etape?	al-Zubaydiyyaŧ ?	cornu5
46.93427	34.43457	Jibal	waystations	etape?	al-Zubaydiyyaŧ ?	cornu5
52.36669	33.37701	Jibal	towns	cite	Ardistān	cornu6
48.15134	34.80031	Jibal	towns	cite	Asadābāḏ	cornu5
51.18532	32.13467	Jibal	waystations	etape	Asbīḏ Dašt	cornu4
50.54227	34.68541	Jibal	towns	cite	Āwaŧ	cornu5
52.01467	33.5596	Jibal	waystations	etape	Bāḏ	cornu5
48.71891	35.29415	Jibal	waystations	etape	Bārisiyān ?	cornu5
47.47958	34.37821	Jibal	waystations	etape	Bīsutūn/Bihsutūn	cornu5
51.67468	32.78618	Jibal	regions	region	Burḫuwār	cornu5
48.8094	33.90164	Jibal	capitals	cheflieu	Burūǧird	cornu5
49.74164	35.13286	Jibal	towns	cite	Būstaŧ	cornu5
48.98488	34.95777	Jibal	waystations	etape	Būzanǧird	cornu5
48.7573	33.44757	Jibal	waystations	etape	Dāraqān	cornu5
48.73262	34.84758	Jibal	villages	localite	Darnawá ?	cornu5
50.19954	35.00944	Jibal	waystations	etape	Darwāḏ ?	cornu5
47.49055	34.60195	Jibal	capitals	cheflieu	Dīnawar/Māh al-Kūfaŧ 	cornu5
51.65	35.3031	Jibal	sites	site	Dizā/Dizah/Waramīn	cornu5
52.07774	35.75607	Jibal	regions	territoire	Dummāwand	cornu5
49.75261	34.25592	Jibal	regions	region	Farāhān	cornu5
50.29276	33.3812	Jibal	waystations	etape	Ǧarbāḏaqān/Ǧulbayǧān	cornu5
48.90536	34.21059	Jibal	waystations	etape	Ǧūrāb	cornu5
48.57908	34.77554	Jibal	metropoles	metropole	Hamaḏān	cornu5
48.57908	34.77554	Jibal	regions	region	Hamaḏān	cornu5
51.56268	32.40331	Jibal	towns	cite	Ḫān Lanǧān/Ḫalanǧān/Ḫūlanǧān	cornu4
51.79877	32.23981	Jibal	waystations	etape	Ḫān Ruš	cornu6
50.28728	33.18407	Jibal	waystations	etape	Ḫunaǧān	cornu5
49.27004	34.41215	Jibal	waystations	etape	Ḫundāb	cornu5
51.65	32.66855	Jibal	regions	circon	Iṣbahān/Iṣfahān	cornu5
51.65	32.66855	Jibal	capitals	capitale	Iṣbahān/Iṣfahān/al-Yahūdiyyaŧ	cornu5
51.72677	32.40272	Jibal	regions	region	Karwān	cornu5
48.25553	33.8675	Jibal	villages	localite	Lāštar	cornu5
46.04283	34.43477	Jibal	waystations	etape	Māḏarwistān ?	cornu5
50.95356	33.08994	Jibal	waystations	etape	Marǧ wa-Zahr	cornu5
46.92023	33.58473	Jibal	regions	region	Māsabaḏān	cornu5
49.85406	35.06107	Jibal	waystations	etape	Maṣdaqān	cornu5
50.77259	35.30758	Jibal	waystations	etape	Maškūyaŧ	cornu5
47.52071	33.20013	Jibal	regions	region	Mihrǧānqaḏaq	cornu5
51.91596	32.45826	Jibal	waters	riviere	Nahr Zandarūḏ/al-Zarīnrūḏ/Zaranrūḏ	cornu5
48.39263	34.21512	Jibal	capitals	cheflieu	Nihāwand/Māh al-Baṣraŧ	cornu5
47.65232	34.46868	Jibal	waystations	etape	Qanṭaraŧ al-Nuʿmān ?	cornu5
50.65469	33.23683	Jibal	waystations	etape	Qanūwān	cornu5
47.09845	34.32388	Jibal	towns	cite	Qarmāsīn/Qarmīsīn	cornu5
51.11259	34.44607	Jibal	waystations	etape	Qaryaŧ al-Maǧūs	cornu5
51.50468	33.96762	Jibal	capitals	cheflieu	Qāšān	cornu5
51.50468	33.96762	Jibal	regions	territoire	Qāšān	cornu5
47.90457	34.4958	Jibal	towns	cite	Qaṣr al-Luṣūṣ	cornu5
50.0011	36.27854	Jibal	towns	cite-	Qazwīn	cornu5
50.90695	34.63354	Jibal	capitals	cheflieu	Qumm	cornu5
50.90695	34.63354	Jibal	regions	territoire	Qumm	cornu5
51.03856	35.41491	Jibal	waystations	etape	Qusṭānaŧ	cornu5
48.54618	34.42798	Jibal	waystations	etape	Rākāh	cornu5
48.65585	34.25819	Jibal	towns	cite	Rāman ?	cornu5
51.77613	33.08075	Jibal	waystations	etape	Ribāṭ Wazz	cornu5
49.791	35.10371	Jibal	villages	localite	Rūḏaŧ #?	cornu5
48.39263	34.62225	Jibal	towns	cite	Ruḏrāwar	cornu5
52.7166	32.43743	Jibal	regions	canton	Ruwaydašt	cornu5
48.36521	33.49102	Jibal	villages	localite	Sābūrḫāšt/Sābūrḫuwāšt	cornu5
46.01676	35.25767	Jibal	regions	territoire	Šahrazūr	cornu5
49.55519	34.36011	Jibal	capitals	cheflieu	Sārūq	cornu5
50.42711	34.97799	Jibal	towns	cite	Sāwaŧ	cornu5
46.98439	35.31623	Jibal	towns	cite	Sīsar	cornu16
48.63061	36.45828	Jibal	towns	cite	Suhraward	cornu5
50.02954	35.0274	Jibal	waystations	etape	Sūsanqīn/Sūsnaqīn/Sūnaqīn	cornu5
50.09809	34.71922	Jibal	regions	region	Ṭabrīš	cornu5
51.81177	33.32165	Jibal	waystations	etape	Ṭarq	cornu5
49.39342	35.12165	Jibal	waystations	etape	Ṭazraŧ	cornu5
49.25084	35.59348	Jibal	waystations	etape	Ūḏ	cornu5
48.42279	34.83858	Jibal	waystations	etape	Zaʿfaraniyyaŧ ?	cornu5
49.23165	35.06556	Jibal	waystations	etape	Zarraŧ	cornu5
42.25518	55.73456	Khazar	regions	region	al-Arṯā/al-Arṯāniyyaŧ	cornu18
40.8946	48.61696	Khazar	regions	region	al-Baǧānāk/al-Baǧānākiyyaŧ	cornu18
49.92897	49.24133	Khazar	regions	region	al-Baǧānāk/al-Baǧānākiyyaŧ	cornu18
47.55892	47.42616	Khazar	regions	region	al-Ḫazar	cornu18
44.66088	42.2133	Khazar	regions	region	al-Sarīr	cornu18
50.10497	42.55994	Khazar	waters	lac	Baḥr al-Ḫazar	cornu18
46.42082	43.28166	Khazar	towns	cite	Balanǧar	cornu18
54.16457	50.04287	Khazar	regions	region	Bašǧirt/Basǧird	cornu18
48.40369	54.1546	Khazar	regions	region	Bulġār	cornu18
49.25044	54.86714	Khazar	towns	cite	Bulġār	cornu18
46.64374	52.68645	Khazar	regions	region	Burṭās	cornu18
50.92627	44.33997	Khazar	regions	region	Ǧazīraŧ Siyāh Kūh	cornu18
48.0869	46.2788	Khazar	capitals	capitale	Itil/Atil	cornu18
45.13019	49.20301	Khazar	waters	riviere	Nahr Itil	cornu18
47.51198	42.90467	Khazar	towns	cite	Samandar	cornu18
49.96347	54.45304	Khazar	towns	cite	Suwār	cornu18
59.59733	37.27	Khurasan	towns	cite	Abīward	cornu17
63.528	35.24882	Khurasan	towns	cite	Abšīn ?	cornu17
62.24983	33.59424	Khurasan	towns	cite	Adraskar	cornu17
65.94751	36.20578	Khurasan	towns	cite	al-Anbār	cornu17
62.12974	33.24402	Khurasan	capitals	capitale	al-Asfuzār	cornu17
62.12974	33.24402	Khurasan	regions	territoire	al-Asfuzār	cornu17
63.76323	35.81599	Khurasan	waystations	etape	al-Asrāb ?	cornu17
67.80206	34.84737	Khurasan	capitals	capitale	al-Bāmiyān	cornu17
67.80206	34.84737	Khurasan	regions	territoire	al-Bāmiyān	cornu17
60.61524	35.17917	Khurasan	towns	cite	al-Būzǧān/Būzkān	cornu17
65.87895	35.88517	Khurasan	regions	region	al-Ǧurzuwān	cornu17
65.87895	35.88517	Khurasan	towns	cite	al-Ǧurzuwān	cornu17
59.36352	35.53664	Khurasan	waystations	etape	al-Mallāḥaŧ ?	cornu17
59.59168	36.20578	Khurasan	towns	cite	al-Nūqān/al-Mašhad	cornu17
65.32516	36.3564	Khurasan	waystations	etape	al-Qāʾ ?	cornu17
62.44974	36.5754	Khurasan	villages	localite	al-Qarīnayn	cornu17
66.21231	36.8377	Khurasan	waystations	etape	al-Sidraŧ ?	cornu17
61.73152	37.68151	Khurasan	towns	cite	al-Sūsaqān/al-Sawsaqān ?	cornu17
64.83857	35.9347	Khurasan	waystations	etape	al-Yahūdiyyaŧ/Ǧakūḏān	cornu17
63.51255	39.06795	Khurasan	towns	cite	Āmul	cornu17
65.16655	36.95541	Khurasan	towns	cite	Andaḫūḏ	cornu17
69.36909	35.68835	Khurasan	towns	cite	Andarāb	cornu17
63.44735	35.74074	Khurasan	waystations	etape	Araskan ?	cornu17
68.86234	37.23952	Khurasan	towns	cite	Ārhan	cornu17
56.45362	36.32897	Khurasan	towns	cite	Asadābāḏ	cornu16
62.67861	36.29294	Khurasan	waystations	etape	Asadābāḏ ?	cornu17
57.43023	36.98777	Khurasan	regions	canton	Asfarāyin	cornu16
57.43023	36.98777	Khurasan	towns	cite	Asfarāyin	cornu16
62.80223	34.2484	Khurasan	towns	cite	Astarabyān ?	cornu17
63.16814	34.4094	Khurasan	towns	cite	Awbaŧ/Awfaŧ	cornu17
56.59926	36.68546	Khurasan	capitals	cheflieu	Azāḏwār	cornu16
62.4787	34.94152	Khurasan	towns	cite	Babnaŧ	cornu17
70.79525	37.59609	Khurasan	regions	region	Baḏaḫšān	cornu17
62.07465	34.61545	Khurasan	regions	region	Bāḏġīs/Bāḏaġīs	cornu17
68.77093	36.2356	Khurasan	regions	territoire	Baġlān	cornu17
68.77093	36.2356	Khurasan	towns	cite	Baġlān	cornu17
62.54722	35.60846	Khurasan	towns	cite	Baġšūr	cornu17
60.33692	35.01995	Khurasan	regions	region	Bāḫarz	cornu17
62.46952	36.88847	Khurasan	waystations	etape	Baḥīrābāḏ ?	cornu17
56.83212	36.32897	Khurasan	villages	localite	Bahmanābāḏ	cornu16
66.88305	36.78497	Khurasan	capitals	capitale	Balḫ	cornu17
66.88305	36.78497	Khurasan	regions	circon	Balḫ	cornu17
69.81804	35.51814	Khurasan	regions	canton	Banǧahīr/Banǧar ?	cornu17
69.81804	35.51814	Khurasan	towns	cite	Banǧahīr/Banǧar ?	cornu17
69.25887	35.17084	Khurasan	regions	canton	Barwān/Farwān	cornu17
69.25887	35.17084	Khurasan	towns	cite	Barwān/Farwān	cornu17
62.37698	34.28751	Khurasan	towns	cite	Bāšān ?	cornu17
57.6484	36.08485	Khurasan	regions	region	Bayhaq	cornu17
58.39294	36.08371	Khurasan	villages	localite	Bīskand/Bīšakand ?	cornu17
61.47787	34.35023	Khurasan	capitals	cheflieu	Būsanǧ/Fušanǧ/Būšank	cornu17
61.47787	34.35023	Khurasan	regions	territoire	Būsanǧ/Fušanǧ/Būšank	cornu17
58.27285	35.2614	Khurasan	regions	region	Bušt	cornu17
59.24061	36.17813	Khurasan	regions	contree	Buštafrūš/Bustanfarūš	cornu17
59.24061	36.17813	Khurasan	villages	bourgade	Buštafrūš/Bustanfarūš	cornu17
61.65152	37.27393	Khurasan	towns	cite	Dandānaqān ?	cornu17
66.6411	36.8334	Khurasan	villages	localite	Dastaǧirdaŧ ?	cornu17
62.95057	34.6968	Khurasan	capitals	capitale	Dihistān	cornu17
63.44735	35.42618	Khurasan	towns	cite	Dizah ?	cornu17
59.56978	35.782	Khurasan	waystations	etape	Farhākird	cornu17
64.93938	36.46025	Khurasan	towns	cite	Fāriyāb	cornu17
61.08287	34.27729	Khurasan	towns	cite	Farkird ?	cornu17
62.29575	37.39749	Khurasan	villages	localite	Fāz/Zarq ?	cornu17
61.44101	35.31157	Khurasan	villages	village	Ǧabal al-Fiḍḍaŧ/Kūh-I Sīm	cornu17
60.57003	35.33837	Khurasan	regions	region	Ǧām	cornu17
69.62448	35.39907	Khurasan	towns	cite	Ǧārbāyaŧ ?	cornu17
64.44388	34.88273	Khurasan	regions	territoire	Ġarǧ al-Šār/Ǧarǧistān	cornu17
61.87474	37.50068	Khurasan	villages	localite	Ǧarūǧird/Kanūǧird/Yanūǧird/Yanūkird ?	cornu17
59.84669	35.04974	Khurasan	regions	canton	Ǧāyimand ?	cornu17
65.09941	34.38521	Khurasan	sites	mont	Ǧibal al-Ġūr	cornu17
62.22511	37.49732	Khurasan	towns	cite	Ǧīranǧ/Kīrank ?	cornu17
70.92564	36.80704	Khurasan	regions	canton	Ǧirm	cornu17
63.20339	38.58258	Khurasan	sites	ribat	Ǧubb Ḥammād ?	cornu17
56.69972	36.86045	Khurasan	regions	region	Ǧuwayn/Kūyān	cornu16
65.10068	35.7211	Khurasan	regions	region	Ǧūzǧān	cornu17
59.66585	36.08	Khurasan	waystations	etape	Ḫakisār/Ḫākisārān/al-Ram_adaŧ	cornu17
61.89282	37.61978	Khurasan	towns	cite	Ḫaraq ?	cornu17
62.15235	34.33419	Khurasan	capitals	capitale	Harāŧ	cornu17
62.15235	34.33419	Khurasan	regions	circon	Harāŧ	cornu17
60.16386	34.31639	Khurasan	towns	cite	Ḫarkird/Ḫarǧird	cornu17
63.94658	34.34906	Khurasan	towns	cite	Ḫašt/Ḫast/Ḫāst/Ḫwašt	cornu17
60.07273	34.56282	Khurasan	regions	region	Ḫawāf	cornu17
62.96749	35.96191	Khurasan	waystations	etape	Ḥawzān ?	cornu17
62.58466	34.27292	Khurasan	towns	cite	Ḫaysār ?	cornu17
58.45439	36.91219	Khurasan	capitals	cheflieu	Ḫūǧān/Ḫūšān/Ḫabūšān	cornu17
67.70299	36.74621	Khurasan	towns	cite	Ḫulm	cornu17
61.61458	37.60594	Khurasan	towns	cite	Hurmuz Farrah ?	cornu17
61.61458	37.60594	Khurasan	waters	coursdeau	Hurmuz Farrah ?	cornu17
57.92813	36.10768	Khurasan	waystations	etape	Ḥusaynābāḏ ?	cornu17
57.47851	36.18956	Khurasan	towns	cite	Ḫusrawǧird	cornu16
69.16963	34.52442	Khurasan	towns	cite	Kābul	cornu17
67.72517	35.24443	Khurasan	towns	cite	Kāh/Ǧāh	cornu17
64.60334	35.33988	Khurasan	towns	cite	Kandaram ?	cornu17
62.46952	35.0772	Khurasan	regions	region	Kanǧ Rustāq	cornu17
63.98233	35.78873	Khurasan	waystations	etape	Kanǧābāḏ ?	cornu17
61.32587	34.42834	Khurasan	towns	cite	Karah ?	cornu17
62.54651	34.47814	Khurasan	towns	cite	Karūḫ	cornu17
64.54957	35.88354	Khurasan	waystations	etape	Kasḥān ?	cornu17
62.42996	35.20428	Khurasan	towns	cite	Kayf/Kīf  ?	cornu17
70.54447	41.1916	Khurasan	sites	mont	Kūh-i Sīm/Ǧabal al-Fiḍḍaŧ	cornu17
58.12875	35.12055	Khurasan	towns	cite	Kundur	cornu17
62.59986	37.78994	Khurasan	towns	cite	Kušmayhan/Kušmāhan ?	cornu17
61.1747	34.61574	Khurasan	towns	cite	Kūsuwī/Kūsarī	cornu17
62.22016	33.85099	Khurasan	towns	cite	Kuwāšān ?	cornu17
67.85287	35.38044	Khurasan	towns	cite	Maḏar	cornu17
62.41583	37.12201	Khurasan	waystations	etape	Mahdīābāḏ ?	cornu17
60.29878	35.4167	Khurasan	waystations	etape	Mālāyakird ?	cornu17
65.07649	36.81403	Khurasan	towns	cite	Mālin	cornu17
62.19614	34.18473	Khurasan	towns	cite	Mālin/al-Safalqāt/Malīn/Mālān	cornu17
60.26487	34.93776	Khurasan	towns	cite	Mālin/Kuwāḫarz	cornu17
63.00426	34.3371	Khurasan	towns	cite	Mārābāḏ ?	cornu17
63.3667	35.5925	Khurasan	capitals	capitale	Marw al-Rūḏ	cornu17
63.3667	35.5925	Khurasan	regions	territoire	Marw al-Rūḏ	cornu17
62.10386	37.67193	Khurasan	capitals	capitale	Marw/Marw al-Šāhiǧān	cornu17
62.10386	37.67193	Khurasan	regions	circon	Marw/Marw al-Šāhiǧān	cornu17
60.44076	36.85569	Khurasan	towns	cite	Mayhanaŧ/Mahanaŧ	cornu17
60.54672	36.17215	Khurasan	villages	localite	Mazdūrān/al-ʿAqabaŧ	cornu17
56.95205	36.27876	Khurasan	villages	localite	Mazīnān	cornu16
57.8469	36.5805	Khurasan	regions	canton	Mihraǧān/Mihriǧān ?	cornu17
57.8469	36.5805	Khurasan	towns	cite?	Mihraǧān/Mihriǧān ?	cornu17
62.52603	36.73407	Khurasan	waters	riviere	Nahr Murġab	cornu17
58.21787	37.85763	Khurasan	towns	cite	Nasāʾ	cornu17
58.79841	36.12138	Khurasan	metropoles	metropole	Naysābūr	cornu17
58.79841	36.12138	Khurasan	regions	circon	Naysābūr	cornu17
60.00916	35.63286	Khurasan	waystations	etape	Nūkdah ?	cornu17
65.31239	37.59463	Khurasan	waystations	etape	Qabr Ġiyāṯ/Qaná Ġiyāṯ	cornu17
59.28793	37.12708	Khurasan	villages	localite	Qalmayhan ?	cornu17
63.21212	35.76147	Khurasan	towns	cite	Qaṣr Aḥnaf	cornu17
59.129	36.03203	Khurasan	villages	localite	Qaṣr al-Rīḥ	cornu17
59.09428	33.64706	Khurasan	capitals	capitale	Qāyīn	cornu17
59.44592	33.77051	Khurasan	regions	region	Qūhistān	cornu17
58.96653	36.81951	Khurasan	towns	cite	Rāḏakān/Rāyakān	cornu17
56.26856	38.92182	Khurasan	sites	ribat	Ribāṭ Afrāwaŧ	cornu16
62.80686	38.0492	Khurasan	sites	ribat	Ribāṭ al-Ḥadīd ?	cornu17
63.35393	38.84034	Khurasan	sites	ribat	Ribāṭ Bāris ?	cornu17
63.81969	35.61955	Khurasan	villages	localite	Ribāṭ Karzwān	cornu17
59.384	37.24076	Khurasan	sites	ribat	Ribāṭ Kūfan	cornu17
62.7655	34.53751	Khurasan	sites	ribat	Ribāṭ Mayānah	cornu17
62.99639	38.31229	Khurasan	sites	ribat	Ribāṭ Naṣrak ?	cornu17
63.52263	35.08069	Khurasan	waystations	etape	Ribāṭ Šūr ?	cornu17
58.36115	36.18583	Khurasan	towns	cite	Rīwand ?	cornu17
65.78352	36.65136	Khurasan	towns	cite	Šabūrqān/Ušbūrqān	cornu17
57.66932	36.15624	Khurasan	towns	cite	Sābzawār	cornu16
60.18929	36.10597	Khurasan	villages	localite	Ṣāhih	cornu17
70.91488	36.65244	Khurasan	towns	cite	Sakalkand/Iskalkand ?	cornu17
68.74862	34.0827	Khurasan	towns	cite	Sakāwand	cornu17
59.98232	34.64655	Khurasan	towns	cite	Salūmak	cornu17
59.61287	36.232	Khurasan	villages	village	Sanābāḏ ?	cornu17
59.41155	35.05003	Khurasan	regions	canton	Sankān/Sanǧān	cornu17
61.18671	36.51694	Khurasan	towns	cite	Saraḫs	cornu17
67.09946	37.02037	Khurasan	villages	localite	Šawkard/Siyāhǧird	cornu17
68.09011	36.22585	Khurasan	towns	cite	Siminǧān	cornu17
61.68119	37.4648	Khurasan	towns	cite	Sinǧ/Sink ?	cornu17
63.51568	34.72729	Khurasan	towns	cite	Šūrmīn ?	cornu17
64.24579	35.72328	Khurasan	towns	cite	Ṭalaqān	cornu17
69.62314	36.76021	Khurasan	towns	cite	Ṭālaqān	cornu17
61.47492	37.03409	Khurasan	waystations	etape	Talastānaŧ ?	cornu17
68.67012	36.03586	Khurasan	regions	region	Ṭuḫāristān	cornu17
58.11679	33.92591	Khurasan	towns	cite	Tūn	cornu17
58.4113	35.13557	Khurasan	capitals	cheflieu	Ṭurṯīṯ/Turšīz/Ṭurayṯīṯ	cornu17
59.49915	36.42208	Khurasan	capitals	capitale	Ṭūs/Ṭābarān	cornu17
59.49915	36.42208	Khurasan	regions	region	Ṭūs/Ṭābarān	cornu17
60.79678	36.34872	Khurasan	waystations	etape	Ūkīnaŧ/Awkīnaŧ	cornu17
72.31013	37.03915	Khurasan	regions	region	Waḫḫān	cornu17
68.89729	36.78174	Khurasan	towns	cite	Warwālīǧ/Walwālīz	cornu17
58.63618	34.24652	Khurasan	towns	cite	Yunābīḏ/Ǧunābiḏ	cornu17
65.19679	37.86572	Khurasan	towns	cite	Zamm/Karkuh	cornu17
59.86207	34.3105	Khurasan	regions	canton	Zūzan	cornu17
49.31456	31.22889	Khuzistan	waystations	etape	ʿAbdīn	cornu4
48.69059	31.32986	Khuzistan	metropoles	metropole	al-Ahwāz/Sūq al-Ahwāz	cornu4
48.69059	31.32986	Khuzistan	regions	region	al-Ahwāz/Sūq al-Ahwāz	cornu4
48.92625	30.81069	Khuzistan	capitals	capitale	al-Dawraq/al-Surrāq	cornu4
48.92625	30.81069	Khuzistan	regions	region	al-Dawraq/al-Surrāq	cornu4
48.42219	32.38975	Khuzistan	towns	cite	al-Diz/Dizfūl	cornu4
48.45021	32.9865	Khuzistan	villages	localite	al-Diz/Qanṭaraŧ Andāmiš ?	cornu5
49.83759	30.88498	Khuzistan	regions	kura	al-Ǧāyzan	cornu4
49.83759	30.88498	Khuzistan	towns	cite	al-Ǧāyzan	cornu4
49.80777	30.96763	Khuzistan	waystations	etape	al-Ḫābarān ?	cornu4
48.30291	32.53782	Khuzistan	regions	district	al-Lūr	cornu4
49.69307	30.7313	Khuzistan	villages	bourgade	Āsak ?	cornu4
48.8982	31.66531	Khuzistan	capitals	capitale	ʿAskar Mukram	cornu4
48.8982	31.66531	Khuzistan	regions	region	ʿAskar Mukram	cornu4
49.04158	31.24752	Khuzistan	towns	cite	Azam/Aǧam ?	cornu4
49.96262	31.29164	Khuzistan	waystations	etape	Badah	cornu4
49.34418	29.93795	Khuzistan	waters	mer	Baḥr Fāris	cornu4
48.30405	31.99567	Khuzistan	towns	cite	Baṣinnā	cornu4
48.77033	30.65916	Khuzistan	towns	cite	Bāsiyān	cornu4
47.90375	32.06082	Khuzistan	towns	cite	Bayrūt ?	cornu4
49.89265	31.6409	Khuzistan	towns	cite	Bāzīr/Bāzank	cornu4
50.60379	31.93047	Khuzistan	waystations	etape	Buwayn	cornu4
49.97179	30.77763	Khuzistan	waystations	etape	Dahlīzān	cornu4
49.32901	30.78178	Khuzistan	waystations	etape	Dayraŧ ?	cornu4
48.14211	30.41602	Khuzistan	waters	riviere	Fam al-ʿAḍudī ?	cornu4
49.89724	31.54027	Khuzistan	towns	cite	Ġarwaŧ/ʿArwaŧ	cornu4
50.23675	31.4767	Khuzistan	waystations	etape	Ǧisr Ǧahannam	cornu4
48.53919	32.29866	Khuzistan	capitals	capitale	Ǧundaysābūr	cornu4
48.53919	32.29866	Khuzistan	regions	region	Ǧundaysābūr	cornu4
48.83628	30.73079	Khuzistan	waystations	etape	Ḫan Mazdawayhī/Ḫān Mardawayhi ?	cornu4
49.71372	31.05807	Khuzistan	capitals	cheflieu	Ḥawmaŧ al-Zuṭṭ/al-Zuṭṭ ?	cornu4
49.71372	31.05807	Khuzistan	regions	district	Ḥawmaŧ al-Zuṭṭ/al-Zuṭṭ ?	cornu4
48.33301	30.52571	Khuzistan	towns	cite	Ḥiṣn Mahdī	cornu4
49.87086	31.85548	Khuzistan	towns	cite	Īḏaǧ	cornu4
48.14577	32.46817	Khuzistan	towns	cite	Karǧaŧ/Karḫaŧ	cornu4
48.53345	31.39058	Khuzistan	regions	district	Manāḏir	cornu4
48.881	31.02269	Khuzistan	waystations	etape	Mandam/Bandam ?	cornu4
49.01519	31.76776	Khuzistan	waters	riviere	Nahr Mašruqān/Masrūqān	cornu4
48.20426	32.16186	Khuzistan	waters	riviere	Nahr Sūs	cornu4
48.3809	31.4679	Khuzistan	towns	cite	Nahr Tīrā/Nahr Tīrīn	cornu4
48.842	31.88178	Khuzistan	waters	riviere	Nahr Tustar	cornu4
49.60131	31.28576	Khuzistan	capitals	capitale	Rām Hurmuz/Rāmahurmuz	cornu4
49.60131	31.28576	Khuzistan	regions	region	Rām Hurmuz/Rāmahurmuz	cornu4
51.21056	32.01123	Khuzistan	waystations	etape	Ribāṭ Bārakān	cornu4
50.29984	31.71801	Khuzistan	waystations	etape	Rustaǧird/al-Diz	cornu4
50.14499	30.7244	Khuzistan	towns	cite	Sanbīl/Sūq Sanbīl ?	cornu4
50.84351	32.09289	Khuzistan	waystations	etape	Sawǧar	cornu4
48.5239	30.94139	Khuzistan	towns	cite	Sūq al-Arbaʿāʾ ?	cornu4
48.79726	31.20731	Khuzistan	towns	cite	Šūrāb ?	cornu4
48.26047	32.20166	Khuzistan	capitals	capitale	Sūs	cornu4
48.26047	32.20166	Khuzistan	regions	region	Sūs	cornu4
49.82612	31.39156	Khuzistan	waystations	etape	Tīram ?	cornu4
48.85461	32.0511	Khuzistan	capitals	capitale	Tustar/Šuštar	cornu4
48.85461	32.0511	Khuzistan	regions	region	Tustar/Šuštar	cornu4
57.48653	29.06085	Kirman	towns	cite	al-Darbāná/al-Darfāná/Šiʿb Darfārid?	cornu6
58.88326	28.97908	Kirman	towns	cite	al-Fahraǧ	cornu6
57.76854	28.45204	Kirman	villages	localite	al-Mīǧan/al-Mīzan	cornu6
56.01438	29.76249	Kirman	towns	cite	al-Šāmāt	cornu6
55.74854	29.46102	Kirman	metropoles	metropole	al-Sīrǧān	cornu6
55.74854	29.46102	Kirman	regions	circonscription	al-Sīrǧān	cornu6
57.0129	27.93413	Kirman	towns	ville	Ardakān/Sūrakān	cornu6
57.95411	29.32947	Kirman	towns	cite	Awārik	cornu6
56.35225	29.8855	Kirman	towns	cite	Bahār ?	cornu6
55.96459	31.83238	Kirman	towns	cite	Bahāwaḏ ?	cornu6
56.16823	29.12939	Kirman	towns	ville	Bāḫtaŧ/Nāǧt	cornu6
58.34327	29.10304	Kirman	capitals	capitale	Bamm	cornu6
57.10475	30.30962	Kirman	regions	circon	Bardasīr/Bardašīr/Kuwašīr	cornu6
57.81535	27.01075	Kirman	towns	cite	Bās ?	cornu6
55.59756	29.66254	Kirman	towns	cite	Bīmand	cornu6
58.17433	29.20052	Kirman	towns	cite	Darǧīn	cornu6
56.1416	28.40625	Kirman	towns	cite	Dašt Barīn	cornu6
56.13806	27.7741	Kirman	villages	localite	Dih Bārist/Dih Ruwīst ?	cornu6
56.77211	29.95407	Kirman	villages	localite	Firzīn/Firdīn ?	cornu6
57.46843	27.22823	Kirman	towns	cite	Ǧakīn	cornu6
56.92513	30.67077	Kirman	towns	cite	Ǧanzarūḏ/Ǧātrūd ?	cornu6
58.29802	28.6778	Kirman	sites	mont	Ǧibāl al-Bāriz	cornu6
56.81984	29.17945	Kirman	sites	mont	Ǧibāl Maʿdin al-Fiḍḍaŧ	cornu6
57.80498	28.69436	Kirman	capitals	capitale	Ǧīruft	cornu6
56.46959	28.02089	Kirman	villages	localite	Ǧīrūqān ?	cornu6
56.97972	29.72844	Kirman	towns	cite	Ġubayrāʾ	cornu6
58.18338	28.12851	Kirman	towns	cite	Ǧuwī Sulaymān	cornu6
57.75292	30.46232	Kirman	towns	cite	Ḫabīṣ	cornu6
56.31341	28.85863	Kirman	towns	cite	Ḫabr	cornu6
56.71727	29.85672	Kirman	towns	cite	Ḫannāb	cornu6
56.94955	27.0994	Kirman	towns	cite	Hurmūz	cornu6
57.92696	29.01602	Kirman	towns	cite	Hurmuz al-Malik/Qaryaŧ al-Ǧawz	cornu6
55.24354	28.71262	Kirman	waystations	etape	Ḫušnābāḏ/Ḥasanābāḏ ?	cornu6
55.33985	28.87915	Kirman	towns	ville	Kāhūn ?	cornu6
56.6147	29.7101	Kirman	towns	cite	Karistān ?	cornu6
58.26785	29.71534	Kirman	towns	cite	Kašīd	cornu6
56.29939	28.11572	Kirman	waystations	etape	Kašistān ?	cornu6
57.70606	30.11166	Kirman	towns	cite	Kaṯruwā	cornu6
57.06721	29.61836	Kirman	towns	cite	Kūġūn	cornu6
57.75501	27.67797	Kirman	towns	cite	Kūh Barǧān	cornu6
56.29779	31.38012	Kirman	towns	cite	Kūh Bayān	cornu6
57.76105	29.86457	Kirman	towns	cite	Kūk	cornu6
57.22106	27.79812	Kirman	waystations	etape	Kūmīz/Kūmīn/Kūmīr	cornu6
55.67825	29.79365	Kirman	villages	localite	Kurdakān ?	cornu6
58.49109	28.88667	Kirman	towns	cite	Kurk/Ǧurǧ	cornu6
57.7882	27.97676	Kirman	towns	cite	Maġūn	cornu6
57.31039	30.11166	Kirman	towns	cite	Māhān	cornu6
57.56194	27.45601	Kirman	towns	cite	Manūqān/Manūǧān	cornu6
56.75347	27.96611	Kirman	villages	localite	Marzaqān	cornu6
57.9091	28.4383	Kirman	waters	riviere	Nahr Harīrūḏ	cornu6
58.64795	28.98436	Kirman	capitals	capitale	Narmāsīr	cornu6
58.03255	29.70224	Kirman	towns	cite	Našk	cornu6
57.49859	29.61311	Kirman	towns	cite	Rāʾin/Rāyin	cornu6
55.28258	29.5607	Kirman	waystations	etape?	Ribāṭ Bušt Ḫamm ?	cornu6
58.73846	28.65133	Kirman	towns	cite	Rīqān/Rīkān	cornu6
57.73088	27.82747	Kirman	regions	region	Ruḏbār/Ruḏbāl	cornu6
54.80361	29.63539	Kirman	waystations	etape	Sarmaqān/Ǧarmaqān/Ribāṭ Sarmaqān ?	cornu6
57.89378	29.27422	Kirman	towns	cite	Sarwīstān	cornu6
57.80931	29.4241	Kirman	towns	cite	Tūštān	cornu6
57.27536	28.0034	Kirman	towns	cite	Walāšǧird	cornu6
56.59714	30.82737	Kirman	towns	cite	Zarand	cornu6
56.87568	31.24891	Kirman	towns	cite	Zāwar/Rawār	cornu6
57.40729	32.65943	Mafaza	waystations	etape	Āb Šūr ?	cornu6
58.78635	31.90091	Mafaza	waystations	relais	al-Ḥawḍ	cornu6
56.18509	33.40323	Mafaza	waystations	etape	al-Muhallabī ?	cornu6
54.41329	32.14014	Mafaza	villages	village	Anǧīraŧ	cornu6
56.78965	33.67155	Mafaza	villages	village	Ataškahān	cornu6
56.97011	34.42374	Mafaza	waystations	etape	Bannaŧ/Bunn ?	cornu6
58.27354	31.41567	Mafaza	waystations	etape	Bārisk	cornu6
57.50413	32.1335	Mafaza	waystations	etape	Biʾr Bar/Ǧāh Bar	cornu6
55.41827	33.02224	Mafaza	waystations	relais	Bušt Bāḏām	cornu6
56.87872	34.16617	Mafaza	waystations	etape	Bustadārān	cornu6
51.67468	32.90827	Mafaza	waystations	relais	Dānǧī	cornu5
58.76561	29.22421	Mafaza	villages	village	Dāristān	cornu6
57.77635	30.76476	Mafaza	waystations	relais	Darkūǧuwī ?	cornu6
56.7309	34.30394	Mafaza	waystations	etape	Darzīnak ?	cornu6
56.60995	34.25952	Mafaza	sites	site	Daskardān/Daskarwān #?	cornu6
51.61984	35.08576	Mafaza	waystations	etape?	Dayr al-Ǧiṣṣ	cornu5
57.21668	31.88986	Mafaza	waystations	relais	Ġamr Surḫ ?	cornu6
54.93672	33.55385	Mafaza	waystations	relais	Ǧarmaq	cornu6
55.43921	33.57348	Mafaza	waystations	etape	Ḥawḍ al-Ḥāǧib ?	cornu6
58.87551	32.77833	Mafaza	villages	localite	Ḫawst	cornu6
54.65669	32.32168	Mafaza	villages	village	Ḫazānaŧ/Ḫarānaŧ	cornu6
51.46355	33.39951	Mafaza	sites	forteresse	Ḥiṣn Badraŧ	cornu5
56.22435	33.94771	Mafaza	waystations	etape	Ḥulwān	cornu6
58.45153	32.93881	Mafaza	towns	ville	Ḫūr	cornu6
59.96927	29.91949	Mafaza	towns	cite	Isbīḏ/Isfīd/Sabīḏ/Safīd/Sabīǧ/Sanīǧ	cornu6
51.31	34.92405	Mafaza	waystations	etape	Kāǧ	cornu5
52.24892	32.89927	Mafaza	sites	mont	Karkas Kūh	cornu6
58.8598	32.62196	Mafaza	villages	village	Kūkūr ?	cornu6
57.18746	33.37701	Mafaza	villages	localite	Kurī/Kurīn	cornu6
53.32456	32.70128	Mafaza	waystations	etape	Kuškān ?	cornu6
57.58788	32.33053	Mafaza	villages	localite	Nāband	cornu6
53.11258	32.84212	Mafaza	waystations	etape?	Nāʾīn	cornu6
58.52604	31.68852	Mafaza	waystations	relais	Nīmaŧ ?	cornu6
56.489	34.11501	Mafaza	waystations	etape	Nuǧāy/Nūḫānī ?	cornu6
54.19969	31.74166	Mafaza	waystations	etape	Qaryaŧ al-Maǧūs	cornu6
59.28094	31.25781	Mafaza	waystations	etape	Qaryaŧ Salm	cornu6
52.72262	32.66383	Mafaza	waystations	etape	Rakūnīn # ?	cornu6
58.87027	32.4344	Mafaza	waystations	etape	Raʾs al-Māʾ ?	cornu6
55.93385	33.24359	Mafaza	waystations	relais	Ribāṭ Āb Šuturān/Ḫān Ušturān	cornu6
56.45466	33.73469	Mafaza	waystations	etape	Ribāṭ Ḫūrān/Ribāṭ Kūrān	cornu6
51.48549	33.07845	Mafaza	waystations	etape	Ribāṭ Ibn Rustam	cornu5
57.43239	34.84612	Mafaza	waystations	etape	Ribāṭ Zanǧī ?	cornu6
55.21675	32.52933	Mafaza	waystations	relais	Sāġand	cornu6
52.1233	32.69688	Mafaza	waystations	etape	Sakš	cornu6
56.79227	33.89125	Mafaza	waystations	etape	Sarīš	cornu6
52.27735	34.57768	Mafaza	sites	mont	Siyāh Kūh	cornu6
57.78936	31.27116	Mafaza	waystations	etape	Šūrirūḏ/Šūr Duwāzdaŧ #	cornu6
56.94144	33.58656	Mafaza	towns	cite	Ṭabas Ǧīlakī/Ṭabas al-Tamr	cornu6
60.20763	32.81573	Mafaza	towns	ville?	Ṭabas Masīnān/Ṭabas al-ʿUnnāb	cornu6
0.60289	35.78297	Maghrib	towns	cite	al-Baṭḥaŧ	cornu12
1.09406	36.11161	Maghrib	towns	cite	al-Ġuzzaŧ ?	cornu12
8.19472	34.0563	Maghrib	towns	cite	al-Ḥammaŧ	cornu12
4.53218	35.66309	Maghrib	towns	cite	al-Masīlaŧ	cornu12
7.73214	35.6162	Maghrib	towns	cite	al-Miskyānaŧ	cornu12
-5.84677	31.13962	Maghrib	villages	localite	al-Naḥḥāsīn	cornu12
10.14137	35.70049	Maghrib	capitals	capitale	al-Qayrawān	cornu12
6.62703	36.3379	Maghrib	towns	cite	al-Qusṭanṭiniyyaŧ/Qusṭanṭiniyyaŧ	cornu12
10.10538	34.35352	Maghrib	waystations	etape	al-Zaytūnaŧ/ʿAyn Zaytūnaŧ/Biʾr Zaytūnaŧ	cornu12
-2.96861	35.29761	Maghrib	towns	cite	Amlīl	cornu12
-1.45702	35.28205	Maghrib	towns	cite	Arǧikūk/al-Šaqūr 	cornu12
-4.52149	32.30201	Maghrib	regions	canton	ʿArīš	cornu12
7.20287	36.05429	Maghrib	towns	cite	Arkū/Rakwaŧ	cornu12
10.8019	34.77411	Maghrib	towns	cite	Asfāqus	cornu12
3.16032	35.70178	Maghrib	towns	cite	ʿAšīr	cornu12
-1.16486	35.45814	Maghrib	towns	cite	Āslān/Wāslān	cornu12
2.25421	36.541	Maghrib	towns	cite/port	Ašrašāl	cornu12
10.28004	36.59668	Maghrib	towns	cite	Awḏanaŧ	cornu12
-7.6971	31.49952	Maghrib	towns	cite	Aylān/Aġmāt Aylā/Aġmāt Waylā	cornu12
-5.97486	35.58306	Maghrib	towns	cite	Azīlaŧ	cornu12
6.65773	34.76281	Maghrib	towns	cite	Bādis	cornu12
9.20563	36.67738	Maghrib	towns	cite	Bāǧaŧ	cornu12
7.12454	35.50598	Maghrib	towns	cite	Bāġāy	cornu12
5.04769	36.70199	Maghrib	sites	port	Baǧāyaŧ	cornu12
-4.70461	35.19603	Maghrib	regions	canton	Balad Ġumār	cornu12
5.60554	34.67928	Maghrib	towns	cite	Banṭiyūs	cornu12
2.0298	36.21928	Maghrib	villages	village	Banū Wārīfan	cornu12
9.8217	37.2407	Maghrib	towns	cite	Banzart	cornu12
-5.88806	34.82887	Maghrib	towns	cite	Baṣraŧ	cornu12
6.1401	35.63685	Maghrib	towns	cite	Bilizmaŧ	cornu12
5.72622	34.84755	Maghrib	towns	cite	Biskaraŧ	cornu12
8.81609	33.8038	Maghrib	towns	ville	Biššará/Bišrī	cornu12
-6.48719	34.55645	Maghrib	waters	lac	Buḥayraŧ Aryāġ/Buḥayraŧ al-Riġaŧ	cornu12
7.74061	36.88509	Maghrib	towns	cite	Būnaŧ	cornu12
6.62915	35.49564	Maghrib	towns	cite	Dūfānaŧ	cornu12
0.05881	35.21592	Maghrib	towns	cite	Fakkān/Afkān	cornu12
-1.75553	35.03281	Maghrib	towns	cite	Fālūsan/Qaṣr al-Fulūs	cornu12
-5.02852	34.06727	Maghrib	capitals	capitale	Fās	cornu12
6.58045	35.22457	Maghrib	sites	mont	Ǧabal Awrās	cornu12
11.37139	31.81241	Maghrib	sites	mont	Ǧabal Nafūsaŧ	cornu12
9.86192	35.7761	Maghrib	towns	cite	Ǧalūlāʾ	cornu12
5.60237	36.24063	Maghrib	towns	cite	Ǧamīlā	cornu12
-2.28691	35.09519	Maghrib	towns	ville	Ǧarāwaŧ Abū al-ʿAyš	cornu12
10.99773	37.03058	Maghrib	towns	cite	Ǧazīraŧ Abū Šarīk	cornu12
3.09046	36.70793	Maghrib	towns	cite	Ǧazīraŧ Banū Zaġannāyaŧ	cornu12
5.71881	36.77325	Maghrib	towns	cite	Ǧīǧil	cornu12
-1.92701	35.06747	Maghrib	towns	cite	Ġuzzaŧ	cornu12
-3.90859	35.22154	Maghrib	towns	ville	Haǧar al-Naṣr/Qalʿaŧ al-Nusūr/Nākūr/Nukūr	cornu12
8.71976	36.18255	Maghrib	villages	village	Ḫawr al-Kāf	cornu12
0.442	35.55078	Maghrib	towns	cite	Huwāraŧ	cornu12
10.27879	33.69175	Maghrib	waystations	etape	Katānaŧ	cornu12
-3.92129	34.66535	Maghrib	towns	cite	Kazannāyaŧ #?	cornu12
-5.83301	34.59132	Maghrib	towns	cite	Kurt	cornu12
8.83937	36.10562	Maghrib	towns	cite	Lurbus/al-Urbus	cornu12
-1.65814	34.73932	Maghrib	towns	cite	Madīnaŧ ʿAlawiyyīn	cornu12
11.05807	35.49133	Maghrib	towns	cite	Mahdiyyaŧ	cornu12
9.11248	36.81309	Maghrib	regions	region	Maknaŧ Abū Manṣūr #?	cornu12
10.94269	36.72745	Maghrib	towns	ville	Manzil Bāšū	cornu12
5.0297	35.54259	Maghrib	towns	cite	Maqqaraŧ	cornu12
8.40114	35.48917	Maghrib	villages	localite	Marmāǧannaŧ/Māǧannaŧ	cornu12
3.58797	36.73169	Maghrib	towns	cite	Marsá al-Daǧǧāǧ	cornu12
8.42231	36.8546	Maghrib	towns	cite/port	Marsá al-Ḫaraz	cornu12
-9.6481	30.0645	Maghrib	towns	cite	Māssaŧ	cornu12
1.90701	35.9541	Maghrib	regions	region	Maṭmāṭaŧ	cornu12
-4.53948	34.11636	Maghrib	towns	cite	Maṭmāṭaŧ	cornu12
2.84276	36.59413	Maghrib	towns	cite	Mattīǧaŧ	cornu12
-5.56626	33.91455	Maghrib	towns	cite	Miknāsaŧ	cornu12
6.2883	36.42482	Maghrib	towns	cite	Mīlā	cornu12
2.22246	36.27861	Maghrib	towns	cite	Miliyānaŧ	cornu12
0.8273	35.67814	Maghrib	towns	cite	Mindās	cornu12
10.80402	35.75548	Maghrib	towns	cite	Munastīr	cornu12
7.90257	33.87018	Maghrib	towns	cite	Nafṭaŧ	cornu12
9.28396	33.61536	Maghrib	regions	region	Nafzāwaŧ	cornu12
-4.6284	34.13739	Maghrib	towns	cite	Namālataŧ	cornu12
5.70399	35.58177	Maghrib	towns	cite	Niqāwus	cornu12
10.68123	34.83148	Maghrib	regions	region	Qabīšaŧ	cornu12
8.82032	34.40681	Maghrib	towns	cite	Qafṣaŧ	cornu12
-4.31719	34.19475	Maghrib	villages	localite	Qalʿaŧ Karmāṭaŧ/Kurmāṭaŧ	cornu12
9.13153	35.15407	Maghrib	regions	region	Qamūdaŧ	cornu12
10.26628	36.87916	Maghrib	towns	cite	Qarṭāǧannaŧ	cornu12
8.27517	33.88951	Maghrib	regions	region	Qasṭīliyaŧ	cornu12
-6.88943	33.99489	Maghrib	villages	localite	Ribāṭ	cornu12
-2.89875	34.41816	Maghrib	towns	cite	Ṣāʿ	cornu12
9.16117	35.41674	Maghrib	towns	cite	Sabībaŧ	cornu12
-5.33338	35.86107	Maghrib	towns	cite	Sabtaŧ	cornu12
-6.79416	34.04753	Maghrib	towns	cite	Salā	cornu12
-5.52392	35.29674	Maghrib	towns	cite	Ṣanhāǧaŧ	cornu12
5.4076	36.15863	Maghrib	towns	cite	Saṭīf	cornu12
-4.23723	31.27819	Maghrib	capitals	capitale	Siǧilmāsaŧ	cornu12
-4.23723	31.27819	Maghrib	regions	circon	Siǧilmāsaŧ	cornu12
9.22256	35.23365	Maghrib	capitals	cheflieu	Subayṭilaŧ	cornu12
3.91612	36.3622	Maghrib	towns	cite	Sūq Ḥamzaŧ	cornu12
2.69033	36.10305	Maghrib	towns	cite	Sūq Karā	cornu12
10.6156	35.81044	Maghrib	towns	cite	Sūsaŧ	cornu12
-3.30734	34.32074	Maghrib	towns	cite	Tābarīdā	cornu12
8.81185	36.91556	Maghrib	towns	cite	Ṭabarqaŧ	cornu12
8.13227	35.37489	Maghrib	regions	canton	Tabassā	cornu12
1.35022	36.34557	Maghrib	towns	cite	Taǧannaŧ	cornu12
1.36504	35.36971	Maghrib	capitals	capitale	Tāhirt	cornu12
1.36504	35.36971	Maghrib	regions	circon	Tāhirt	cornu12
5.82783	34.79932	Maghrib	towns	cite	Tahūḏā	cornu12
3.28946	36.73508	Maghrib	towns	cite/port	Tāmadfūs	cornu12
1.37563	36.49038	Maghrib	towns	cite	Tanas	cornu12
-7.17841	31.78429	Maghrib	towns	cite	Tandalī	cornu12
-5.84572	35.77868	Maghrib	regions	territoire	Tanǧaŧ	cornu12
8.26247	34.00718	Maghrib	towns	cite	Taqyūs	cornu12
-8.8413	30.50052	Maghrib	capitals	capitale	Tarqālaŧ	cornu12
5.38113	34.69495	Maghrib	towns	cite	Ṭawlaqā	cornu12
8.15027	33.93695	Maghrib	towns	cite	Tawzir	cornu12
6.8345	36.0868	Maghrib	towns	cite	Tīǧis	cornu12
-1.32364	34.88186	Maghrib	towns	cite	Tilimsān	cornu12
-4.02927	34.22102	Maghrib	towns	cite	Tīzā/Tāzaŧ	cornu12
5.35573	35.32395	Maghrib	towns	cite	Ṭubnaŧ	cornu12
10.17736	36.77071	Maghrib	towns	cite	Tūnis	cornu12
-5.95157	35.07007	Maghrib	towns	ville	Tušummus	cornu12
-5.95157	35.07007	Maghrib	waters	wadi	Tušummus	cornu12
8.72082	35.80744	Maghrib	villages	localite	Ubbaŧ	cornu12
3.18573	36.1099	Maghrib	waters	wadi	Wādī al-Māliḥ	cornu12
-8.07804	29.19903	Maghrib	waters	wadi	Wādī Darʿaŧ	cornu12
-7.42487	30.93544	Maghrib	waters	wadi	Wādī Darʿaŧ	cornu12
-4.39975	34.24946	Maghrib	waters	wadi	Wādī Īnāwan	cornu12
-3.64184	33.37702	Maghrib	waters	wadi	Wādī Malwiyyaŧ	cornu12
-3.67995	34.42515	Maghrib	waters	wadi	Wādī Masūn	cornu12
-5.98544	34.45352	Maghrib	waters	wadi	Wādī Sabū	cornu12
-5.76527	34.9938	Maghrib	waters	wadi	Wādī Safdad	cornu12
1.45396	36.21758	Maghrib	waters	wadi	Wādī Šalif	cornu12
-5.30163	34.49584	Maghrib	waters	wadi	Wādī Warġaŧ	cornu12
-4.48761	31.87198	Maghrib	waters	wadi	Wādī Zīz	cornu12
-0.61866	35.70565	Maghrib	towns	cite	Wahrān	cornu12
-5.60437	34.09883	Maghrib	towns	cite	Walīlaŧ	cornu12
-7.6357	31.44535	Maghrib	towns	cite	Warīkaŧ/Aġmāt Warīkaŧ	cornu12
10.13608	36.40097	Maghrib	towns	cite	Zaġwān	cornu12
43.51007	12.72778	noData	noData	noData	noData	cornu7
44.99099	12.8121	noData	noData	noData	noData	cornu7
44.86827	13.05673	noData	noData	noData	noData	cornu7
43.27301	13.31198	noData	noData	noData	noData	cornu7
44.17683	13.97911	noData	noData	noData	noData	cornu8
44.1294	14.05288	noData	noData	noData	noData	cornu7
44.74355	14.16433	noData	noData	noData	noData	cornu8
43.23381	14.19526	noData	noData	noData	noData	cornu7
43.02533	14.47122	noData	noData	noData	noData	cornu7
44.3966	14.54229	noData	noData	noData	noData	cornu7
43.05763	15.23753	noData	noData	noData	noData	cornu7
44.1705	15.41877	noData	noData	noData	noData	cornu7
45.78041	15.42653	noData	noData	noData	noData	cornu8
45.32826	15.4424	noData	noData	noData	noData	cornu8
42.54671	15.46971	noData	noData	noData	noData	cornu7
42.82566	15.72708	noData	noData	noData	noData	cornu7
44.0971	15.87118	noData	noData	noData	noData	cornu7
44.02411	16.39057	noData	noData	noData	noData	cornu7
42.74775	16.46407	noData	noData	noData	noData	cornu7
43.68167	17.02818	noData	noData	noData	noData	cornu7
42.52744	17.05108	noData	noData	noData	noData	cornu7
43.59547	17.31417	noData	noData	noData	noData	cornu7
42.3622	17.33475	noData	noData	noData	noData	cornu7
42.50109	17.34161	noData	noData	noData	noData	cornu7
44.13162	17.49039	noData	noData	noData	noData	cornu8
43.52035	17.64001	noData	noData	noData	noData	cornu8
42.18021	17.91444	noData	noData	noData	noData	cornu7
35.66637	22.87825	noData	noData	noData	noData	cornu7
32.70635	23.00335	noData	noData	noData	noData	cornu10
32.63674	23.13126	noData	noData	noData	noData	cornu10
32.65149	23.16952	noData	noData	noData	noData	cornu10
32.81303	23.86016	noData	noData	noData	noData	cornu10
32.81795	24.01161	noData	noData	noData	noData	cornu10
32.78693	24.02232	noData	noData	noData	noData	cornu10
32.85199	24.07483	noData	noData	noData	noData	cornu10
38.04189	24.08274	noData	noData	noData	noData	cornu9
67.33938	24.1391	noData	noData	noData	noData	cornu20
39.53597	24.44955	noData	noData	noData	noData	cornu9
32.93106	24.4542	noData	noData	noData	noData	cornu10
46.69314	24.58959	noData	noData	noData	noData	cornu9
32.86025	24.9582	noData	noData	noData	noData	cornu11
32.54759	25.259	noData	noData	noData	noData	cornu11
49.54316	25.27985	noData	noData	noData	noData	cornu9
66.70122	25.32585	noData	noData	noData	noData	cornu20
68.38891	25.34015	noData	noData	noData	noData	cornu20
69.6283	25.36875	noData	noData	noData	noData	cornu20
41.42429	25.553	noData	noData	noData	noData	cornu9
32.5384	25.63094	noData	noData	noData	noData	cornu11
39.21945	25.78047	noData	noData	noData	noData	cornu9
32.83266	25.89182	noData	noData	noData	noData	cornu11
68.94268	25.90129	noData	noData	noData	noData	cornu20
32.86638	25.99449	noData	noData	noData	noData	cornu11
43.91699	26.07604	noData	noData	noData	noData	cornu7
66.30567	26.15128	noData	noData	noData	noData	cornu20
31.98818	26.19613	noData	noData	noData	noData	cornu11
44.39764	26.3625	noData	noData	noData	noData	cornu9
68.84247	26.46332	noData	noData	noData	noData	cornu20
31.79967	26.5761	noData	noData	noData	noData	cornu11
37.97634	26.60624	noData	noData	noData	noData	cornu9
42.26444	26.7451	noData	noData	noData	noData	cornu9
37.9724	26.79664	noData	noData	noData	noData	cornu9
