{"geoTitle":"الأنبار","cornuName":"الأنبار","geoTitleOther":"الأنبار","lat":"36.20578","lon":"65.94751","cornuRegion":"Khurasan","geoProv":"العراق","geoFinalReg":"سامرا","_d3Map":{"color":"rgb(139, 0, 0)","stroke":"rgb(0, 0, 0)","opacity":"1","strokeWidth":"1px","fontSize":"16px","fontWeight":"normal","dx":0,"dy":0,"originalTranslate":"translate(0.18318752777777778,-0.10802175042868956)"},"processed":"not-match"}
{"geoTitle":"خشت","cornuName":"خشت","geoTitleOther":"خشت/ خست/ خاست/ خوشت","lat":"34.34906","lon":"63.94658","cornuRegion":"Khurasan","geoProv":"فارس","geoFinalReg":"سابور","_d3Map":{"color":"rgb(139, 0, 0)","stroke":"rgb(0, 0, 0)","opacity":"1","strokeWidth":"1px","fontSize":"16px","fontWeight":"normal","dx":0,"dy":0,"originalTranslate":"translate(0.17762938888888888,-0.10170349135829167)"},"processed":"not-match"}
{"geoTitle":"الرملة","cornuName":"الرمل","geoTitleOther":"الرمل","lat":"40.13581","lon":"63.16025","cornuRegion":"Transoxiana","geoProv":"الشام","geoFinalReg":"فلسطين","_d3Map":{"color":"rgb(139, 0, 0)","stroke":"rgb(0, 0, 0)","opacity":"1","strokeWidth":"1px","fontSize":"16px","fontWeight":"normal","dx":0,"dy":0,"originalTranslate":"translate(0.17544513888888888,-0.12191379801412748)"},"processed":"not-match"}
{"geoTitle":"سمنان","cornuName":"سمنجان","geoTitleOther":"سمنجان","lat":"36.22585","lon":"68.09011","cornuRegion":"Khurasan","geoProv":"الديلم","geoFinalReg":"قومس","_d3Map":{"color":"rgb(139, 0, 0)","stroke":"rgb(0, 0, 0)","opacity":"1","strokeWidth":"1px","fontSize":"16px","fontWeight":"normal","dx":0,"dy":0,"originalTranslate":"translate(0.18913919444444444,-0.10809085081281694)"},"processed":"match"}
{"geoTitle":"آمل","cornuName":"آمل","geoTitleOther":"آمل","lat":"39.06795","lon":"63.51255","cornuRegion":"Khurasan","geoProv":"الديلم","geoFinalReg":"طبرستان","_d3Map":{"color":"rgb(139, 0, 0)","stroke":"rgb(0, 0, 0)","opacity":"1","strokeWidth":"1px","fontSize":"16px","fontWeight":"normal","dx":0,"dy":0,"originalTranslate":"translate(0.17642375000000002,-0.11806381874226655)"},"processed":"not-sure"}
{"geoTitle":"بروان","cornuName":"بروان","geoTitleOther":"بروان/ فروان","lat":"35.17084","lon":"69.25887","cornuRegion":"Khurasan","geoProv":"الديلم","geoFinalReg":"الديلمان","_d3Map":{"color":"rgb(139, 0, 0)","stroke":"rgb(0, 0, 0)","opacity":"1","strokeWidth":"1px","fontSize":"16px","fontWeight":"normal","dx":0,"dy":0,"originalTranslate":"translate(0.19238575000000002,-0.10448210052500619)"},"processed":"not-sure"}
{"geoTitle":"شروان","cornuName":"سروان","geoTitleOther":"شروان","lat":"31.97709","lon":"64.84747","cornuRegion":"Sijistan","geoProv":"الرحاب","geoFinalReg":"الران","_d3Map":{"color":"rgb(139, 0, 0)","stroke":"rgb(0, 0, 0)","opacity":"1","strokeWidth":"1px","fontSize":"16px","fontWeight":"normal","dx":0,"dy":0,"originalTranslate":"translate(0.18013186111111112,-0.09383161930270476)"},"processed":"not-sure"}
{"geoTitle":"سنجان","cornuName":"سمنجان","geoTitleOther":"سمنجان","lat":"36.22585","lon":"68.09011","cornuRegion":"Khurasan","geoProv":"الرحاب","geoFinalReg":"أرمينية","_d3Map":{"color":"rgb(139, 0, 0)","stroke":"rgb(0, 0, 0)","opacity":"1","strokeWidth":"1px","fontSize":"16px","fontWeight":"normal","dx":0,"dy":0,"originalTranslate":"translate(0.18913919444444444,-0.10809085081281694)"},"processed":"match"}
{"geoTitle":"بنجبور","cornuName":"بنجبور","geoTitleOther":"بنجبور/ فنجبور/ بنزبور/ قنزبور","lat":"26.92662","lon":"64.11916","cornuRegion":"Sind","geoProv":"السند","geoFinalReg":"مكران","_d3Map":{"color":"rgb(139, 0, 0)","stroke":"rgb(0, 0, 0)","opacity":"1","strokeWidth":"1px","fontSize":"16px","fontWeight":"normal","dx":0,"dy":0,"originalTranslate":"translate(0.17810877777777775,-0.07771192959752406)"},"processed":"match"}
{"geoTitle":"خواش","cornuName":"خواش","geoTitleOther":"خواش/ خواش/ أخواش","lat":"31.49499","lon":"62.76028","cornuRegion":"Sijistan","geoProv":"السند","geoFinalReg":"مكران","_d3Map":{"color":"rgb(139, 0, 0)","stroke":"rgb(0, 0, 0)","opacity":"1","strokeWidth":"1px","fontSize":"16px","fontWeight":"normal","dx":0,"dy":0,"originalTranslate":"translate(0.17433411111111113,-0.09225701085473566)"},"processed":"match"}
{"geoTitle":"قنوج","cornuName":"قنوج","geoTitleOther":"قنوج","lat":"27.11654","lon":"80.03921","cornuRegion":"Sind","geoProv":"السند","geoFinalReg":"قنوج","_d3Map":{"color":"rgb(139, 0, 0)","stroke":"rgb(0, 0, 0)","opacity":"1","strokeWidth":"1px","fontSize":"16px","fontWeight":"normal","dx":0,"dy":0,"originalTranslate":"translate(0.2223311388888889,-0.07830413314242729)"},"processed":"match"}
{"geoTitle":"قنوج","cornuName":"قنوج","geoTitleOther":"قنوج","lat":"27.11654","lon":"80.03921","cornuRegion":"Sind","geoProv":"السند","geoFinalReg":"قنوج","_d3Map":{"color":"rgb(139, 0, 0)","stroke":"rgb(0, 0, 0)","opacity":"1","strokeWidth":"1px","fontSize":"16px","fontWeight":"normal","dx":0,"dy":0,"originalTranslate":"translate(0.2223311388888889,-0.07830413314242729)"},"processed":"match"}
