geoTitle,cornuName,geoTitleOther,lat,lon,cornuRegion,geoProv,geoFinalReg,eiSearch
حمام ابن عمر,حمام إبن عمر,حمام إبن عمر,32.39084,44.34773,Iraq,العراق,الکوفة,Hammam Ibn Umar
الجامعين,الجامعان,الجامعين,32.48152,44.43704,Iraq,العراق,الکوفة,|al-Jamian, al-Jamiayn|
النيل,النيل,النيل,32.511,44.89011,Iraq,العراق,الکوفة,al-Nil
عين التمر,عين التمر,عين التمر,32.62337,43.52574,Iraq,العراق,الکوفة,Ayn al-Tamr
بيان,بيان,بيان,30.46468,48.03005,Iraq,العراق,البصرة,Bayan
دبا,دبا,دبا,25.59071,56.22657,Jazirat al-Arab,العراق,البصرة,Daba
ابو الخصيب,أبو الخصيب,أبو الخصيب,30.43759,47.99265,Iraq,العراق,البصرة,Abu al-Khasib
عبادان,عبادان,عبادان,30.33563,48.27394,Iraq,العراق,البصرة,Abbadan
فم الصلح,فم الصلح,فم الصلح,32.46405,46.1315,Iraq,العراق,واسط,Fam al-Silh
باذبين,باذبين,باذبين,32.17087,46.59233,Iraq,العراق,واسط,Badhibin
الطيب,الطيب,الطيب,32.22674,47.30428,Iraq,العراق,واسط,al-Tib
النهروان,النهروان,النهروان,33.43161,44.59405,Iraq,العراق,بغداد,al-Nahrawan
بردان,بردان,بردان,33.50829,44.36092,Iraq,العراق,بغداد,Baradan
طراستان,الهاروني,طرستان,33.97686,45.01502,Iraq,العراق,بغداد,|al-Haruniyya, Tarastan|
خانقين,خانقين,خانقين,34.34844,45.44708,Iraq,العراق,حلوان,Khaniqin
السيروان,السيروان,السيروان/ الشيراوان,33.52303,46.86539,Jibal,العراق,حلوان,|al-Sirawan, al-Shirawan|
الدور,الدور,الدور,34.46814,43.80541,Iraq,العراق,سامرا,al-Dur
الدور,الدورق,الدورق/ السراق,30.81069,48.92625,Khuzistan,العراق,سامرا,|al-Dawraq, al-Surraq|
الدور,الدورق,الدورق/ السراق,30.81069,48.92625,Khuzistan,العراق,سامرا,|al-Dawraq, al-Surraq|
الجامعين,الجامعان,الجامعين,32.48152,44.43704,Iraq,العراق,سامرا,|al-Jamian, al-Jamiayn|
دمما,دمما,دمما,33.33483,43.78276,Iraq,العراق,سامرا,Dimimma
الأنبار,الأنبار,الأنبار,33.39492,43.7015,Iraq,العراق,سامرا,al-Anbar
الأنبار,الأنبار,الأنبار,36.20578,65.94751,Khurasan,العراق,سامرا,al-Anbar
هيت,هيت,هيت,33.6437,42.80628,Iraq,العراق,سامرا,Hit
السن,السن,السن,35.26076,43.46591,Iraq,العراق,سامرا,al-Sinn
ساوة,ساوة,ساوة,34.97799,50.42711,Jibal,الجبال,الري,Sawa
قزوين,قزوين,قزوين,36.27854,50.0011,Jibal,الجبال,الري,Qazwin
أبهر,أبهر,أبهر,36.15722,49.23473,Jibal,الجبال,الري,Abhar
شلنبة,شلنبة,شلنبة,35.68449,52.04723,Daylam,الجبال,الري,Shalanba
الخوار,الخوار,الخوار,35.26209,52.40859,Daylam,الجبال,الري,al-Khuwar
رامن,رامن,رامن,34.25819,48.65585,Jibal,الجبال,همذان,Raman
روذراور,رذراور,رذراور,34.62225,48.39263,Jibal,الجبال,همذان,Rudhrawar
اليهودية,إصبهان,اليهودية,32.66855,51.65,Jibal,الجبال,أصفهان,|Isbahan, Isfahan, al-Yahudiyya|
اليهودية,اليهودية,اليهودية/ جكوذان,35.9347,64.83857,Khurasan,الجبال,أصفهان,|al-Yahudiyya, Jakudhan|
برقة,برقة,برقة,32.37576,20.84475,Barqa,المغرب,برقة,Barqa
برقة,برقة,برقة,32.37576,20.84475,Barqa,المغرب,برقة,Barqa
ذات الحمام,ذات الحمام,ذات الحمام/ ذات الحمام,30.86496,29.30208,Barqa,المغرب,برقة,|Dhat al-Humam, Dhat al-Hammam|
رمادة,رمادة,رمادة,31.02336,27.61485,Barqa,المغرب,برقة,Ramada
أطرابلس,أطرابلس,أطرابلس/ طرابلس,32.87801,13.19209,Barqa,المغرب,برقة,|Atrabulus, Tarabulus|
أطرابلس,أطرابلس,أطرابلس/ طرابلس,34.44044,35.85194,Sham,المغرب,برقة,|Atrabulus, Tarabulus|
أجدابية,أجدابية,أجدابية,30.46697,20.20218,Barqa,المغرب,برقة,Ajdabiyya
صبرة,صبرة,صبرة,32.78822,12.48146,Barqa,المغرب,برقة,Sabra
قابس,قابس,قابس,33.86603,10.08563,Barqa,المغرب,برقة,Qabis
غافق,غافق,غافق,38.68214,-5.01064,Andalus,المغرب,برقة,Ghafiq
تاهرت,تاهرت,تاهرت,35.36971,1.36504,Maghrib,المغرب,تاهرت,Tahirt
تاهرت,تاهرت,تاهرت,35.36971,1.36504,Maghrib,المغرب,تاهرت,Tahirt
الجعبة,الجبة,الجبة/ المحنة,31.84948,40.18305,Badiyat al-Arab,المغرب,تاهرت,|al-Jubba, al-Mahna|
منداس,منداس,منداس,35.67814,0.8273,Maghrib,المغرب,تاهرت,Mindas
مطماطة,مطماطة,مطماطة,34.11636,-4.53948,Maghrib,المغرب,تاهرت,Matmata
مطماطة,مطماطة,مطماطة,35.9541,1.90701,Maghrib,المغرب,تاهرت,Matmata
وهران,وهران,وهران,35.70565,-0.61866,Maghrib,المغرب,تاهرت,Wahran
الغزة,الغزة,الغزة,36.11161,1.09406,Maghrib,المغرب,تاهرت,al-Ghuzza
البطحة,البطائح,البطيحة,31.98716,45.29796,Iraq,المغرب,تاهرت,|al-Bataih, al-Batiha|
البطحة,البطحة,البطحة,35.78297,0.60289,Maghrib,المغرب,تاهرت,al-Batha
الزيتونة,الزيتونة,الزيتونة/ عين زيتونة/ بئر زيتونة,34.35352,10.10538,Maghrib,المغرب,تاهرت,|al-Zaytuna, Ayn Zaytuna, Bir Zaytuna|
تنس,تنس,تنس,36.49038,1.37563,Maghrib,المغرب,تاهرت,Tanas
قصر الفلوس,فالوسن,قصر الفلوس,35.03281,-1.75553,Maghrib,المغرب,تاهرت,|Falusan, Qasr al-Fulus|
فكان,فكان,فكان/ أفكان,35.21592,0.05881,Maghrib,المغرب,تاهرت,|Fakkan, Afkan|
سجلماسة,سجلماسة,سجلماسة,31.27819,-4.23723,Maghrib,المغرب,سجلماسة,Sijilmasa
سجلماسة,سجلماسة,سجلماسة,31.27819,-4.23723,Maghrib,المغرب,سجلماسة,Sijilmasa
النحاسين,النحاسين,النحاسين,31.13962,-5.84677,Maghrib,المغرب,سجلماسة,al-Nahhasin
وليلة,وليلة,وليلة,34.09883,-5.60437,Maghrib,المغرب,طنجة,Walila
غزة,غزة,غزة,35.06747,-1.92701,Maghrib,المغرب,طنجة,Ghuzza
غزة,غزة,غزة,31.49664,34.45664,Sham,المغرب,طنجة,Ghazza
الحاجر,حجر صالح,الحجر,26.86125,37.93999,Jazirat al-Arab,المغرب,طنجة,|Hijr Salih, al-Hijr|
الحاجر,الحاجر,الحاجر,25.9691,41.75129,Jazirat al-Arab,المغرب,طنجة,al-Hajir
الحاجر,الحجر,الحجر,24.64352,46.73212,Jazirat al-Arab,المغرب,طنجة,al-Hajr
البيضاء,البيضاء,البيضاء,41.83632,0.57785,Andalus,المغرب,طنجة,al-Bayda
البيضاء,البيضاء,البيضاء/ نسا,30.03958,52.36712,Faris,المغرب,طنجة,|al-Bayda, Nasa|
البيضاء,البيضاء,البيضاء,26.79044,37.01435,Jazirat al-Arab,المغرب,طنجة,al-Bayda
مقرة,مقرة,مقرة/ مقرة,18.06095,32.46943,Egypt,المغرب,الزاب,|Maqurra, Muqurra|
مقرة,مقرة,مقرة,35.54259,5.0297,Maghrib,المغرب,الزاب,Maqqara
طبنة,طبنة,طبنة,35.32395,5.35573,Maghrib,المغرب,الزاب,Tubna
بسكرة,بسكرة,بسكرة,34.84755,5.72622,Maghrib,المغرب,الزاب,Biskara
بادس,بادس,بادس,34.76281,6.65773,Maghrib,المغرب,الزاب,Badis
تهوذا,تهوذا,تهوذا,34.79932,5.82783,Maghrib,المغرب,الزاب,Tahudha
طولقا,طولقا,طولقا,34.69495,5.38113,Maghrib,المغرب,الزاب,Tawlaqa
ميلا,ميلا,ميلا,36.42482,6.2883,Maghrib,المغرب,الزاب,Mila
بنطيوس,بنطيوس,بنطيوس,34.67928,5.60554,Maghrib,المغرب,الزاب,Bantiyus
فاس,فاس,فاس,34.06727,-5.02852,Maghrib,المغرب,فاس,Fas
البصرة,البصرة,البصرة,30.40147,47.71735,Iraq,المغرب,فاس,al-Basra
صنهاجة,صنهاجة,صنهاجة,35.29674,-5.52392,Maghrib,المغرب,فاس,Sanhaja
هوارة,هوارة,هوارة,35.55078,0.442,Maghrib,المغرب,فاس,Huwara
تيزا,تيزا,تيزا/ تازة,34.22102,-4.02927,Maghrib,المغرب,فاس,|Tiza, Taza|
مطماطة,مطماطة,مطماطة,34.11636,-4.53948,Maghrib,المغرب,فاس,Matmata
مطماطة,مطماطة,مطماطة,35.9541,1.90701,Maghrib,المغرب,فاس,Matmata
كزناية,كزناية,كزناية,34.66535,-3.92129,Maghrib,المغرب,فاس,Kazannaya
سلا,سلا,سلا,34.04753,-6.79416,Maghrib,المغرب,فاس,Sala
بلد غمار,بلد غمار,بلد غمار,35.19603,-4.70461,Maghrib,المغرب,فاس,Balad Ghumar
قلعة النسور,هجر النصر,قلعة النسور,35.22154,-3.90859,Maghrib,المغرب,فاس,|Hajar al-Nasr, Qala al-Nusur, Nakur, Nukur|
نكور,هجر النصر,نكور,35.22154,-3.90859,Maghrib,المغرب,فاس,|Hajar al-Nasr, Qala al-Nusur, Nakur, Nukur|
تابريدا,تابريدا,تابريدا,34.32074,-3.30734,Maghrib,المغرب,فاس,Tabarida
مكناسة,مكناسة,مكناسة,33.91455,-5.56626,Maghrib,المغرب,فاس,Miknasa
مكسين,ميكسين,ميكسين/ ميكسين/ ماكسين,35.74173,40.75934,Aqur,المغرب,فاس,|Mikisin, Maykisin, Makisin|
قسطيلية,قسطيلية,قسطيلية,33.88951,8.27517,Maghrib,المغرب,فاس,Qastiliya
نفزاوة,نفزاوة,نفزاوة,33.61536,9.28396,Maghrib,المغرب,فاس,Nafzawa
نقاوس,نقاوس,نقاوس,35.58177,5.70399,Maghrib,المغرب,فاس,Niqawus
بسكرة,بسكرة,بسكرة,34.84755,5.72622,Maghrib,المغرب,فاس,Biskara
قبيشة,قبيشة,قبيشة,34.83148,10.68123,Maghrib,المغرب,فاس,Qabisha
وليلة,وليلة,وليلة,34.09883,-5.60437,Maghrib,المغرب,طنجة,Walila
غزة,غزة,غزة,35.06747,-1.92701,Maghrib,المغرب,طنجة,Ghuzza
غزة,غزة,غزة,31.49664,34.45664,Sham,المغرب,طنجة,Ghazza
الحاجر,حجر صالح,الحجر,26.86125,37.93999,Jazirat al-Arab,المغرب,طنجة,|Hijr Salih, al-Hijr|
الحاجر,الحاجر,الحاجر,25.9691,41.75129,Jazirat al-Arab,المغرب,طنجة,al-Hajir
الحاجر,الحجر,الحجر,24.64352,46.73212,Jazirat al-Arab,المغرب,طنجة,al-Hajr
البيضاء,البيضاء,البيضاء,41.83632,0.57785,Andalus,المغرب,طنجة,al-Bayda
البيضاء,البيضاء,البيضاء/ نسا,30.03958,52.36712,Faris,المغرب,طنجة,|al-Bayda, Nasa|
البيضاء,البيضاء,البيضاء,26.79044,37.01435,Jazirat al-Arab,المغرب,طنجة,al-Bayda
أرجان,أراجان,أراجان,30.6103,50.29766,Faris,فارس,أرجان,Arrajan
أرجان,أرجمان,أرجمان,31.1799,52.62743,Faris,فارس,أرجان,Arjuman
أرجان,آباذة,أرجمان,31.1643,52.66127,Faris,فارس,أرجان,|Abadha, Arjuman|
قوستان,قوهستان,قوهستان,33.77051,59.44592,Khurasan,فارس,أرجان,Quhistan
داريان,داريان,داريان,29.54062,52.92548,Faris,فارس,أرجان,Dariyan
داريان,دارين,دارين,26.28437,50.19373,Jazirat al-Arab,فارس,أرجان,Darin
داريان,داريا,داريا,33.46544,36.23184,Sham,فارس,أرجان,Darayya
مهربان,مهروبان,مهروبان,30.06436,50.21436,Faris,فارس,أرجان,Mahruban
جنابة,جنابة,جنابة,29.60089,50.53898,Faris,فارس,أرجان,Jannaba
سينيز,سينيز,سينيز/ شينيز,29.92283,50.27838,Faris,فارس,أرجان,|Siniz, Shiniz|
هندوان,هندوان,هندوان/ هنديجان,30.25118,49.70675,Faris,فارس,أرجان,|Hinduwan, Hindijan|
هندوان,هندوجان,هندوجان/ هنديجان,29.39151,51.30074,Faris,فارس,أرجان,|Hindujan, Hindijan|
سيراف,سيراف,سيراف,27.69666,52.34306,Faris,فارس,أردشيرخره,Siraf
جور,جور,جور/ بيروزاباذ,28.84797,52.58324,Faris,فارس,أردشيرخره,|Jur, Bayruzabadh|
ميمند,ميمند,ميمند,28.88488,52.85141,Faris,فارس,أردشيرخره,Mimand
نابند,نابند,نابند,27.34352,52.64171,Faris,فارس,أردشيرخره,Naband
نابند,نابند,نابند,32.33053,57.58788,Mafaza,فارس,أردشيرخره,Naband
الصيمكان,الصيمكان,الصيمكان,28.69941,53.13182,Faris,فارس,أردشيرخره,al-Simakan
خبر,خبر,خبر,28.76436,53.27732,Faris,فارس,أردشيرخره,Khabr
خبر,خبر,خبر,28.85863,56.31341,Kirman,فارس,أردشيرخره,Khabr
خورستان,خورستان,خورستان/ سروستان,29.25713,53.20589,Faris,فارس,أردشيرخره,|Khawaristan, Sarwistan|
خورستان,خورستان,خورستان,29.95166,54.09036,Faris,فارس,أردشيرخره,Khawaristan
الغندجان,الغندجان,الغندجان,29.22327,51.26065,Faris,فارس,أردشيرخره,al-Ghundijan
كران,كران,كران,27.76342,52.86193,Faris,فارس,أردشيرخره,Kuran
نجيرم,نجيرم,نجيرم,28.49687,51.12283,Faris,فارس,أردشيرخره,Najiram
سورو,سورو,سورو,27.19067,56.21348,Faris,فارس,أردشيرخره,Suru
درابجرد,درابجرد,درابجرد,28.75143,54.54591,Faris,فارس,درابجرد,Darabajird
طبستان,طبرستان,طبرستان,36.34732,52.60329,Daylam,فارس,درابجرد,Tabaristan
طبستان,طبستان,طبستان/ طمستان/ طمارستان,28.94971,53.81699,Faris,فارس,درابجرد,|Tabistan, Tamistan, Timaristan|
كرم,كرم,كرم,29.07233,53.608,Faris,فارس,درابجرد,Kurm
يزدخواست,يزدخواست,يزدخواست,28.33754,54.43137,Faris,فارس,درابجرد,Yazdakhawast
كدروا,كدروا,كدروا,29.16368,54.67346,Faris,فارس,درابجرد,Kadruwa
خيار,خيار,خيار/ خير/ خيرة,29.25944,53.93868,Faris,فارس,نيريز,|Khayar, Khayr, Khayra|
المريزجان,المريزجان,المريزجان,28.80847,54.39753,Faris,فارس,نيريز,al-Murayzijan
الماذوان,الماذون,الماذون,28.72175,54.29861,Faris,فارس,نيريز,al-Madhawan
روبنج,روبنج,روبنج,28.5161,54.40794,Faris,فارس,خسو,Rubanj
فرج,فرج,فرج,28.31921,55.16805,Faris,فارس,خسو,Furj
تارم,تارم,تارم/ تارم,28.18163,55.80841,Faris,فارس,خسو,|Tarim, Tarum|
شيراز,شيراز,شيراز,29.61884,52.52867,Faris,فارس,شيراز,Shiraz
البيضاء,البيضاء,البيضاء,41.83632,0.57785,Andalus,فارس,شيراز,al-Bayda
البيضاء,البيضاء,البيضاء/ نسا,30.03958,52.36712,Faris,فارس,شيراز,|al-Bayda, Nasa|
البيضاء,البيضاء,البيضاء,26.79044,37.01435,Jazirat al-Arab,فارس,شيراز,al-Bayda
فسا,فسا,فسا,28.92193,53.63181,Faris,فارس,شيراز,Fasa
جور,جور,جور/ بيروزاباذ,28.84797,52.58324,Faris,فارس,شيراز,|Jur, Bayruzabadh|
كارزين,كارزن,كارزن,28.40599,53.11293,Faris,فارس,شيراز,Karzin
دشت بارين,دشت بارين,دشت بارين,29.28011,51.26816,Faris,فارس,شيراز,Dasht Barin
دشت بارين,دشت برين,دشت برين,28.40625,56.1416,Kirman,فارس,شيراز,Dasht Barin
جم,جم,جم,27.8168,52.39133,Faris,فارس,شيراز,Jamm
كورد,كورد,كورد/ كورد,30.69092,51.9324,Faris,فارس,شيراز,|Kurd, Kurad|
هزار,هزار,هزار/ أزار سابور,29.94029,52.49428,Faris,فارس,شيراز,|Hazar, Azar Sabur|
شهرستان,شهرستان,شهرستان/ جرجان,37.19091,55.206,Daylam,فارس,سابور,|Shahrastan, Jurjan|
شهرستان,شهرستان,شهرستان/ سابور,29.83157,51.51624,Faris,فارس,سابور,|Shahrastan, Sabur|
شهرستان,سابور,شهرستان,29.83157,51.51624,Faris,فارس,سابور,|Sabur, Shahrastan|
دريز,دريز,دريز,29.66188,51.54129,Faris,فارس,سابور,Dariz
كازرون,كازرون,كازرون,29.60743,51.68412,Faris,فارس,سابور,Kazarun
كاريان,كاريان,كاريان,28.05935,53.70323,Faris,فارس,سابور,Karyan
توز,توز,توز/ توج !,29.44172,51.03513,Faris,فارس,سابور,|Tawwaz, Tawwaj !|
توز,توز,توز/ توج !,29.42208,51.17294,Faris,فارس,سابور,|Tawwaz, Tawwaj !|
توز,توز,توز,26.71435,42.29198,Jazirat al-Arab,فارس,سابور,Tuz
خشت,خشت,خشت,29.54859,51.30575,Faris,فارس,سابور,Khasht
خشت,خشت,خشت/ خست/ خاست/ خوشت,34.34906,63.94658,Khurasan,فارس,سابور,|Khasht, Khast, Khast, Khwasht|
خشت,خاش,خشت,41.02958,70.53285,Transoxiana,فارس,سابور,|Khash, Khas, Khasht|
هراة,هراة,هراة,30.11392,54.41315,Faris,فارس,إصطخر,Hara
هراة,هراة,هراة,34.33419,62.15235,Khurasan,فارس,إصطخر,Hara
هراة,هراة,هراة,34.33419,62.15235,Khurasan,فارس,إصطخر,Hara
ميبذ,ميبذ,ميبذ,32.27744,53.98932,Faris,فارس,إصطخر,Maybudh
الحيرة,الحيرة,الحيرة,32.01734,44.37232,Iraq,فارس,إصطخر,al-Hira
فاروق,فاروق,فاروق,29.97467,53.06569,Faris,فارس,إصطخر,Faruq
سروستان,سرويستان,سرويستان/ سرورير,31.42233,52.43219,Faris,فارس,إصطخر,|Sarwistan, Sarurir|
سروستان,خورستان,سروستان,29.25713,53.20589,Faris,فارس,إصطخر,|Khawaristan, Sarwistan|
سروستان,سرويستان,سرويستان,29.27422,57.89378,Kirman,فارس,إصطخر,Sarwistan
أورد,أورد,أورد,30.77818,51.99227,Faris,فارس,إصطخر,Urd
الرون,الرون,الرون,30.7491,52.44,Faris,فارس,إصطخر,al-Run
الرون,قصر أعين,الرون,30.82066,52.44521,Faris,فارس,إصطخر,|Qasr Ain, Qasr Ayin, al-Run|
ده أشتران,ده أشتران,ده أشتران/ قرية الجمال,30.31412,55.70689,Faris,فارس,إصطخر,|Dih Ushturan, Qarya al-Jimal|
صاهه,صاهه,صاهه,36.10597,60.18929,Khurasan,فارس,إصطخر,Sahih
شبابك,شابابك,شابابك/ شاباوك/ شهرباباك,30.13418,55.05872,Faris,فارس,إصطخر,|Shababak, Shabawak, Shahrbabak|
حلب,حلب,حلب,36.19828,37.17518,Sham,الشام,قنسرين,Halab
أنطاكية,أنطاكية,أنطاكية,36.19718,36.18418,Sham,الشام,قنسرين,Antakiyya
بالس,بالس,بالس,36.02806,38.09005,Sham,الشام,قنسرين,Balis
بالس,بالش,بالس,29.64265,67.65738,Sijistan,الشام,قنسرين,|Balish, Balis, Walish, Walishtan|
السويدية,السويداء,السويدية,25.04884,39.03019,Jazirat al-Arab,الشام,قنسرين,|al-Suwayda, al-Suwaydiyya|
السويدية,السويدية,السويدية,36.0896,35.99387,Sham,الشام,قنسرين,al-Suwaydiyya
سميساط,سميساط,سميساط,37.54334,38.54365,Aqur,الشام,قنسرين,Sumaysat
منبج,منبج,منبج,36.54651,37.98957,Aqur,الشام,قنسرين,Manbij
قنسرين,قنسرين,قنسرين,35.99617,37.02701,Sham,الشام,قنسرين,Qinnasrin
مرعش,مرعش,مرعش,37.58314,36.92987,Aqur,الشام,قنسرين,Marash
إسكندرونة,إسكندرونة,إسكندرونة/ إسكندريية,36.57473,36.19234,Sham,الشام,قنسرين,|Iskandaruna, Iskandariya|
رفنية,رفنية,رفنية,34.93133,36.41054,Sham,الشام,قنسرين,Rafaniyya
جوسية,جوسية,جوسية,34.44699,36.56409,Sham,الشام,قنسرين,Jusiya
حماة,حماة,حماة,35.12587,36.76872,Sham,الشام,قنسرين,Hama
شيزر,شيزر,شيزر,35.25585,36.55938,Sham,الشام,قنسرين,Shayzar
معرة النعمان,معرة النعمان,معرة النعمان,35.64344,36.69124,Sham,الشام,قنسرين,Maarra al-Numan
معرة قنسرين,معرة قنسرين,معرة قنسرين,36.01376,36.69667,Sham,الشام,قنسرين,Maarra Qinnasrin
حمص,حمص,حمص,34.73793,36.72425,Sham,الشام,حمص,Hims
سلمية,سلمية,سلمية,35.00401,37.07106,Sham,الشام,حمص,Salamiyya
تدمر,تدمر,تدمر,34.54735,38.28754,Sham,الشام,حمص,Tadmur
الخناصرة,الخناصرة,الخناصرة,35.78031,37.50551,Sham,الشام,حمص,al-Khunasira
كفرطاب,كفرطاب,كفرطاب,35.50744,36.61239,Sham,الشام,حمص,Kafartab
اللاذقية,اللاذقية,اللاذقية,35.51961,35.80763,Sham,الشام,حمص,al-Ladhiqiyya
جبلة,جبلة,جبلة,35.36567,35.95309,Sham,الشام,حمص,Jabala
أنطرسوس,طرسوس,أنطرسوس,36.90807,34.95529,Sham,الشام,حمص,|Tarsus, Antarsus, Antartus|
أنطرسوس,أنطرطوس,أنطرسوس,34.89985,35.90356,Sham,الشام,حمص,|Antartus, Antarsus, Tartus|
بلنياس,بلنياس,بلنياس,35.18256,35.97212,Sham,الشام,حمص,Bulunyas
دمشق,دمشق,دمشق,33.51843,36.30199,Sham,الشام,دمشق,Dimashq
بانياس,بانياس,بانياس,33.2515,35.67787,Sham,الشام,دمشق,Baniyas
بيروت,بيروت,بيروت,32.06082,47.90375,Khuzistan,الشام,دمشق,Bayrut
بيروت,بيروت,بيروت,33.90162,35.5091,Sham,الشام,دمشق,Bayrut
أطرابلس,أطرابلس,أطرابلس/ طرابلس,32.87801,13.19209,Barqa,الشام,دمشق,|Atrabulus, Tarabulus|
أطرابلس,أطرابلس,أطرابلس/ طرابلس,34.44044,35.85194,Sham,الشام,دمشق,|Atrabulus, Tarabulus|
عرقة,عرقة,عرقة,38.36373,37.96251,Aqur,الشام,دمشق,Arqa
عرقة,عرقة,عرقة,34.52991,36.073,Sham,الشام,دمشق,Arqa
عرقة,عرقة,عرقة,17.31174,43.71306,Yemen,الشام,دمشق,Ariqa
بعلبك,بعلبك,بعلبك,34.01251,36.19213,Sham,الشام,البقاع,Balabakk
عرجموش,عرجموش,عرجموش,33.86315,35.89165,Sham,الشام,البقاع,Arjamush
الرملة,الرملة,الرملة,31.92484,34.86436,Sham,الشام,فلسطين,al-Ramla
الرملة,الرمل,الرمل,40.13581,63.16025,Transoxiana,الشام,فلسطين,al-Raml
بيت المقدس,بيت المقدس,بيت المقدس/ القدس/ إيليا,31.77768,35.20345,Sham,الشام,فلسطين,|Bayt al-Maqdis, al-Quds, Iliya|
بيت جبريل,بيت جبريل,بيت جبريل/ بيت جبرين,31.60564,34.88059,Sham,الشام,فلسطين,|Bayt Jibril, Bayt Jibrin|
غزة,غزة,غزة,35.06747,-1.92701,Maghrib,الشام,فلسطين,Ghuzza
غزة,غزة,غزة,31.49664,34.45664,Sham,الشام,فلسطين,Ghazza
ميماس,ميماس,ميماس,31.50145,34.42276,Sham,الشام,فلسطين,Mimas
عسقلان,عسقلان,عسقلان,31.66572,34.55455,Sham,الشام,فلسطين,Asqalan
أرسوف,أرسوف,أرسوف,32.19588,34.80739,Sham,الشام,فلسطين,Arsuf
قيسارية,قيسرية,قيسرية,32.49326,34.89906,Sham,الشام,فلسطين,Qaysariyya
نابلس,نابلس,نابلس,32.22047,35.24238,Sham,الشام,فلسطين,Nabulus
أريحا,رحا,أريحا,31.86043,35.43774,Sham,الشام,فلسطين,|Riha, Ariha|
عمان,عمان,عمان,23.82088,56.45284,Jazirat al-Arab,الشام,فلسطين,Uman
عمان,عمان,عمان,31.93113,35.91903,Sham,الشام,فلسطين,Amman
صغر,صغر,صغر/ زغر,31.03706,35.46845,Sham,الشام,الشراة,|Sughar, Zughar|
مآب,مآب,مآب/ مؤاب,31.2579,35.73272,Sham,الشام,الشراة,|Maab, Muab|
معان,معان,معان/ معان,30.19664,35.72442,Sham,الشام,الشراة,|Maan, Muan|
تبوك,تبوك,تبوك,28.37114,36.5062,Badiyat al-Arab,الشام,الشراة,Tabuk
الفرما,الفرما,الفرما,31.02282,32.59811,Egypt,مصر,الجفار,al-Farama
البقارة,البقارة,البقارة,31.02385,33.12566,Egypt,مصر,الجفار,al-Baqqara
البقارة,البارة,البارة,35.6843,36.54442,Sham,مصر,الجفار,al-Bara
العريش,العريش,العريش,31.12453,33.80807,Egypt,مصر,الجفار,al-Arish
العريش,العرش,العرش,16.96745,42.82787,Yemen,مصر,الجفار,al-Ursh
بلبيس,بلبيس,بلبيس,30.41776,31.57097,Egypt,مصر,الحوف,Bilbays
مشتول,مشتول,مشتول,30.36522,31.37174,Egypt,مصر,الحوف,Mashtul
جرجير,جرجير,جرجير,30.91373,32.19454,Egypt,مصر,الحوف,Jurjir
فاقوس,فاقوس,فاقوس,30.71061,31.79581,Egypt,مصر,الحوف,Faqus
غيفا,غيفا,غيفا,30.38241,31.51348,Egypt,مصر,الحوف,Ghayfa
تونة,تونة,تونة,31.16442,32.0824,Egypt,مصر,الحوف,Tuna
القلزم,القلزم,القلزم,30.02822,32.55684,Egypt,مصر,الحوف,al-Qulzum
العباسية,العباسية,العباسية,30.53647,31.70644,Egypt,مصر,الريف,al-Abbasiyya
شبرو,شبروا,شبرو,30.11048,31.24225,Egypt,مصر,الريف,|Shabruwa, Shubru|
منهور,دمنهور,دمنهور,31.03855,30.45872,Egypt,مصر,الريف,Damanhur
سنهور,سنهور,سنهور,31.16283,30.70832,Egypt,مصر,الريف,Sanhur
بنها العسل,بنها العسل,بنها العسل,30.43641,31.16142,Egypt,مصر,الريف,Banha al-Asal
شطنوف,شطنوف,شطنوف,30.23314,31.06351,Egypt,مصر,الريف,Shatnuf
مليج,مليج,مليج,30.58083,31.01342,Egypt,مصر,الريف,Malij
المحلة الكبيرة,محلة الكبيرة,محلة الكبيرة,30.97329,31.14662,Egypt,مصر,الريف,Mahalla al-Kabira
دميرة,دميرة,دميرة/ دميرة,31.1414,31.3504,Egypt,مصر,الريف,|Damira, Dumayra|
دقهلة,دقهلة,دقهلة,31.28355,31.66289,Egypt,مصر,الريف,Daqahla
العزيزية,منف,العزيزية,29.85447,31.25648,Egypt,مصر,مقدونية,|Manf, al-Aziziyya|
الجيزة,الجيزة,الجيزة,30.00653,31.20183,Egypt,مصر,مقدونية,al-Jiza
عين شمس,عين شمس,عين شمس,30.12919,31.3077,Egypt,مصر,مقدونية,Ayn Shams
أسوان,أسوان,أسوان,24.10701,32.98286,Egypt,مصر,الصعيد,Uswan
حلوان,حلوان,حلوان,29.86015,31.29831,Egypt,مصر,الصعيد,Hulwan
حلوان,حلوان,حلوان,34.47862,45.93468,Iraq,مصر,الصعيد,Hulwan
حلوان,حلوان,حلوان,33.94771,56.22435,Mafaza,مصر,الصعيد,Hulwan
قوص,قوص,قوص,25.91848,32.74342,Egypt,مصر,الصعيد,Qus
بلينا,بلينا,بلينا,26.21922,31.9959,Egypt,مصر,الصعيد,Bulyana
بوصير,بوصير,بوصير/ بوصير الفيوم/ أبوصير/ بوصير قوريدس/ بوصير الأشمونين,29.27633,31.10677,Egypt,مصر,الصعيد,|Busir, Busir al-Fayyum, Abusir, Busir Quridus, Busir al-Ashmunayn|
الفيوم,الفيوم,الفيوم,29.43447,30.69978,Egypt,مصر,الصعيد,al-Fayyum
الفيوم,الفيوم,الفيوم,29.35921,30.84266,Egypt,مصر,الصعيد,al-Fayyum
سمسطا,سمسطا,سمسطا,28.96006,30.88762,Egypt,مصر,الصعيد,Sumusta
تندة,تندة,تندة,27.76484,30.7011,Egypt,مصر,الصعيد,Tanda
طحا,طحا,طحا,28.27313,30.69125,Egypt,مصر,الصعيد,Taha
الموصل,الموصل,الموصل,36.32809,43.127,Aqur,أقور,ديار ربيعة,al-Mawsil
الحديثة,الحديثة,الحديثة,34.10682,42.38707,Aqur,أقور,ديار ربيعة,al-Haditha
الحديثة,الحديثة,الحديثة,36.02054,43.39249,Aqur,أقور,ديار ربيعة,al-Haditha
الحسنية,الحسنية,الحسنية,37.11078,42.72248,Aqur,أقور,ديار ربيعة,al-Hasaniyya
سنجار,سنجار,سنجار,36.32446,41.89101,Aqur,أقور,ديار ربيعة,Sinjar
الجبال,الجبال,الجبال/ عين الجبال,36.2374,41.62102,Aqur,أقور,ديار ربيعة,|al-Jibal, Ayn al-Jibal|
الجبال,الجبال,الجبال,30.26155,35.32238,Sham,أقور,ديار ربيعة,al-Jibal
بلد,بلد,بلد,36.47417,42.758,Aqur,أقور,ديار ربيعة,Balad
أذرمة,أذرمة,أذرمة,36.99109,41.72002,Aqur,أقور,ديار ربيعة,Adhrama
برقعيد,برقعيد,برقعيد,36.95274,42.07551,Aqur,أقور,ديار ربيعة,Barqaid
نصيبين,نصيبين,نصيبين,37.05514,41.22167,Aqur,أقور,ديار ربيعة,Nasibin
دارا,دارا,دارا,37.18527,40.94689,Aqur,أقور,ديار ربيعة,Dara
ثمانين,ثمانين,ثمانين,37.31295,42.64158,Aqur,أقور,ديار ربيعة,Thamanin
الرقة,الرقة,الرقة,35.9493,39.05128,Aqur,أقور,ديار مضر,al-Raqqa
الرافقة,الرافقة,الرافقة,35.94235,39.07703,Aqur,أقور,ديار مضر,al-Rafiqa
الرافقة,الرافقة,الرافقة,30.6947,30.73593,Egypt,أقور,ديار مضر,al-Rafiqa
تل محرى,تل محرٰى,تل محرٰى/ تل بحرٰى,36.61998,39.13855,Aqur,أقور,ديار مضر,|Tall Mahra, Tall Bahra|
باجروان,باجروان,باجروان,36.13571,38.98556,Aqur,أقور,ديار مضر,Bajarwan
باجروان,باجروان,باجروان/ موقان/ موغكان,39.2256,48.12475,Rihab,أقور,ديار مضر,|Bajarwan, Muqan, Mughkan|
حصن مسلمة,حصن مسلمة,حصن مسلمة,36.38728,39.07106,Aqur,أقور,ديار مضر,Hisn Maslama
حران,حران,حران,36.88438,39.08906,Aqur,أقور,ديار مضر,Harran
الرها,الرها,الرها,37.1497,38.82122,Aqur,أقور,ديار مضر,al-Ruha
آمد,آمد,آمد,37.9151,40.21323,Aqur,أقور,ديار بکر,Amid
ميافارقين,ميافارقين,ميافارقين,38.14322,41.00798,Aqur,أقور,ديار بکر,Mayyafariqin
تل فافان,تل فافان,تل فافان/ عين تل فافان,37.72559,41.78238,Aqur,أقور,ديار بکر,|Tall Fafan, Ayn Tall Fafan|
الفار,الجفار,الجفار,30.75519,33.23727,Egypt,أقور,ديار بکر,al-Jifar
الدامغان,الدمغان,الدمغان,36.13093,54.37503,Daylam,الديلم,قومس,al-Damghan
سمنان,سمنان,سمنان,35.49513,53.40856,Daylam,الديلم,قومس,Simnan
سمنان,سمنجان,سمنجان,36.22585,68.09011,Khurasan,الديلم,قومس,Siminjan
بسطام,بسطام,بسطام,36.45952,55.07205,Daylam,الديلم,قومس,Bistam
بيار,بيار,بيار,36.05824,55.86992,Daylam,الديلم,قومس,Biyar
مغون,مغون,مغون,27.97676,57.7882,Kirman,الديلم,قومس,Maghun
شهرستان,شهرستان,شهرستان/ جرجان,37.19091,55.206,Daylam,الديلم,جرجان,|Shahrastan, Jurjan|
شهرستان,شهرستان,شهرستان/ سابور,29.83157,51.51624,Faris,الديلم,جرجان,|Shahrastan, Sabur|
شهرستان,سابور,شهرستان,29.83157,51.51624,Faris,الديلم,جرجان,|Sabur, Shahrastan|
آبسكون,آبسكون,آبسكون,37.02772,54.04327,Daylam,الديلم,جرجان,Abaskun
ألهم,ألهم,ألهم,36.56405,52.23414,Daylam,الديلم,جرجان,Alham
آخر,آخر,آخر,39.19825,55.71277,Daylam,الديلم,جرجان,Akhur
الرباط,الرباط,الرباط,29.12318,53.44663,Faris,الديلم,جرجان,al-Ribat
آمل,آمل,آمل,36.42256,52.40859,Daylam,الديلم,طبرستان,Amul
آمل,آمل,آمل,39.06795,63.51255,Khurasan,الديلم,طبرستان,Amul
سالوس,شالوس,سالوس,36.60408,51.45535,Daylam,الديلم,طبرستان,|Shalus, Salus|
ميلة,ميلة,ميلة,36.4708,52.55267,Daylam,الديلم,طبرستان,Mila
ما مطير,مامطير,مامطير,36.51713,52.74659,Daylam,الديلم,طبرستان,Mamatir
سارية,سارية,سارية,36.53215,53.11807,Rihab,الديلم,طبرستان,Sariya
طميسة,طميشة,طميسة,36.7312,54.05573,Daylam,الديلم,طبرستان,|Tamisha, Tamisa|
ممطير,مامطير,مامطير,36.51713,52.74659,Daylam,الديلم,طبرستان,Mamatir
نامية,نامية,نامية,36.77488,54.32519,Daylam,الديلم,طبرستان,Namiya
بروان,بروان,بروان,37.57057,48.55981,Daylam,الديلم,الديلمان,Barwan
بروان,بروان,بروان/ فروان,35.17084,69.25887,Khurasan,الديلم,الديلمان,|Barwan, Farwan|
بروان,جبروان,جبروان,36.96475,45.60275,Rihab,الديلم,الديلمان,Jabrawan
تارم,تارم,تارم/ تارم,28.18163,55.80841,Faris,الديلم,الديلمان,|Tarim, Tarum|
خشم,خشم,خشم,37.48626,49.18674,Daylam,الديلم,الديلمان,Khashm
إتل,إتل,إتل/ أتل,46.2788,48.0869,Khazar,الديلم,الخزر,|Itil, Atil|
بلغار,بلغار,بلغار,54.1546,48.40369,Khazar,الديلم,الخزر,Bulghar
بلغار,بلغار,بلغار,54.86714,49.25044,Khazar,الديلم,الخزر,Bulghar
سمندر,سمندر,سمندر,42.90467,47.51198,Khazar,الديلم,الخزر,Samandar
سوار,سوار,سوار,54.45304,49.96347,Khazar,الديلم,الخزر,Suwar
بلنجر,بلنجر,بلنجر,43.28166,46.42082,Khazar,الديلم,الخزر,Balanjar
البيضاء,البيضاء,البيضاء,41.83632,0.57785,Andalus,الديلم,الخزر,al-Bayda
البيضاء,البيضاء,البيضاء/ نسا,30.03958,52.36712,Faris,الديلم,الخزر,|al-Bayda, Nasa|
البيضاء,البيضاء,البيضاء,26.79044,37.01435,Jazirat al-Arab,الديلم,الخزر,al-Bayda
أغمات ويلا,أيلان,أغمات أيلا,31.49952,-7.6971,Maghrib,خوزستان,السوس,|Aylan, Aghmat Ayla, Aghmat Wayla|
وريكة,وريكة,وريكة/ أغمات وريكة,31.44535,-7.6357,Maghrib,خوزستان,السوس,|Warika, Aghmat Warika|
ماسة,ماسة,ماسة,30.0645,-9.6481,Maghrib,خوزستان,السوس,Massa
نهر تيري,نهر تيرا,نهر تيرين,31.4679,48.3809,Khuzistan,خوزستان,الأهواز,|Nahr Tira, Nahr Tirin|
سوق الأربعاء,سوق الأربعاء,سوق الأربعاء,30.94139,48.5239,Khuzistan,خوزستان,الأهواز,Suq al-Arbaa
باسيان,بارسيان,بارسيان,35.29415,48.71891,Jibal,خوزستان,الأهواز,Barisiyan
باسيان,باسيان,باسيان,30.65916,48.77033,Khuzistan,خوزستان,الأهواز,Basiyan
شوراب,شوراب,شوراب,31.20731,48.79726,Khuzistan,خوزستان,الأهواز,Shurab
بندم,مندم,بندم,31.02269,48.881,Khuzistan,خوزستان,الأهواز,|Mandam, Bandam|
الدورق,الدور,الدور,34.46814,43.80541,Iraq,خوزستان,الأهواز,al-Dur
الدورق,الدورق,الدورق/ السراق,30.81069,48.92625,Khuzistan,خوزستان,الأهواز,|al-Dawraq, al-Surraq|
الدورق,الدورق,الدورق/ السراق,30.81069,48.92625,Khuzistan,خوزستان,الأهواز,|al-Dawraq, al-Surraq|
إيذج,إيذج,إيذج,31.85548,49.87086,Khuzistan,خوزستان,رامهرمز,Idhaj
تيرم,تيرم,تيرم,31.39156,49.82612,Khuzistan,خوزستان,رامهرمز,Tiram
بازنك,بازير,بازنك,31.6409,49.89265,Khuzistan,خوزستان,رامهرمز,|Bazir, Bazank|
غروة,غروة,غروة/ عروة,31.54027,49.89724,Khuzistan,خوزستان,رامهرمز,|Gharwa, Arwa|
أجم,أزم,أجم,31.24752,49.04158,Khuzistan,خوزستان,الدورق,|Azam, Ajam|
الدز,الدز,الدز/ دزفول,32.38975,48.42219,Khuzistan,خوزستان,الدورق,|al-Diz, Dizful|
الدز,الدز,الدز/ قنطرة أندامش,32.9865,48.45021,Khuzistan,خوزستان,الدورق,|al-Diz, Qantara Andamish|
الدز,رستجرد,الدز,31.71801,50.29984,Khuzistan,خوزستان,الدورق,|Rustajird, al-Diz|
برذعة,برذعة,برذعة,40.45334,47.23624,Rihab,الرحاب,الران,Bardhaa
تفليس,تفليس,تفليس,42.0841,44.83734,Rihab,الرحاب,الران,Tiflis
القلعة,القلعة,القلعة,22.68969,57.66352,Jazirat al-Arab,الرحاب,الران,al-Qala
خنان,خنان,خنان,41.39027,45.50578,Rihab,الرحاب,الران,Khunan
شمكور,شمكور,شمكور,40.99521,46.06157,Rihab,الرحاب,الران,Shamkur
جنزة,جنزة,جنزة/ جنجة,40.81356,46.38603,Rihab,الرحاب,الران,|Janza, Janja|
برديج,برداج,برديج,40.23581,47.56971,Rihab,الرحاب,الران,|Bardaj, Bardij, Barzanj|
الشماخية,الشماخية,الشماخية,40.67871,48.68505,Rihab,الرحاب,الران,al-Shamakhiyya
شروان,شروان,شروان/ شروان,41.11585,48.75339,Rihab,الرحاب,الران,|Shirwan, Sharwan|
شروان,شروان,شروان/ شروان,41.11585,48.75339,Rihab,الرحاب,الران,|Shirwan, Sharwan|
شروان,سروان,شروان,31.97709,64.84747,Sijistan,الرحاب,الران,|Sarwan, Sharwan|
باكوه,باكوه,باكوه,40.379,49.86422,Rihab,الرحاب,الران,Bakuh
باب الأبواب,باب الأبواب,باب الأبواب,42.04308,48.30854,Rihab,الرحاب,الران,Bab al-Abwab
قبلة,قبلة,قبلة,40.79878,47.65158,Rihab,الرحاب,الران,Qabala
ملازكرد,ملازكرد,ملازكرد/ ملازجرد/ منازجرد,39.1437,42.55713,Aqur,الرحاب,الران,|Malazkird, Malazjird, Manazjird|
دبيل,دبيل,دبيل,40.16468,44.68562,Rihab,الرحاب,أرمينية,Dabil
بدليس,بدليس,بدليس/ بدليس,38.3955,42.13266,Aqur,الرحاب,أرمينية,|Badlis, Bidlis|
خلاط,أخلاط,خلاط,38.76551,42.51044,Rihab,الرحاب,أرمينية,|Akhlat, Khilat|
أرجيش,أرجيش,أرجيش,39.0223,43.35895,Rihab,الرحاب,أرمينية,Arjish
سلماس,سلماس,سلماس,38.22277,44.82832,Rihab,الرحاب,أرمينية,Salamas
أرمية,أرمنية,أرمنية,39.47331,44.11256,Rihab,الرحاب,أرمينية,Arminiyya
أرمية,أرميية,أرميية,37.52011,45.07411,Rihab,الرحاب,أرمينية,Urmiya
داخرقان,دارقان,دارقان,33.44757,48.7573,Jibal,الرحاب,أرمينية,Daraqan
داخرقان,داخرقان,داخرقان/ خرقان,37.72041,45.98591,Rihab,الرحاب,أرمينية,|Dakharraqan, Kharraqan|
مراغة,مراغة,مراغة,37.34276,46.24758,Rihab,الرحاب,أرمينية,Maragha
أهر,أهر,أهر,38.45223,47.14386,Rihab,الرحاب,أرمينية,Ahar
مرند,مرند,مرند,38.46017,45.80321,Rihab,الرحاب,أرمينية,Marand
سنجان,سنكان,سنجان,35.05003,59.41155,Khurasan,الرحاب,أرمينية,|Sankan, Sanjan|
سنجان,سمنجان,سمنجان,36.22585,68.09011,Khurasan,الرحاب,أرمينية,Siminjan
قاليقلا,قاليقلا,قاليقلا,39.91956,41.27233,Rihab,الرحاب,أرمينية,Qaliqala
أردبيل,أردبيل,أردبيل,38.23604,48.30651,Rihab,الرحاب,أذربيجان,Ardabil
تبريز,تبريز,تبريز,38.06387,46.33121,Rihab,الرحاب,أذربيجان,Tabriz
جابروان,جبروان,جبروان,36.96475,45.60275,Rihab,الرحاب,أذربيجان,Jabrawan
خونج,خونج,خونج,37.38856,47.2569,Rihab,الرحاب,أذربيجان,Khunaj
الميانج,الميانج,الميانج/ الميانج,37.40341,47.74052,Rihab,الرحاب,أذربيجان,|al-Mayanij, al-Miyanij|
ورثان,ورثان,ورثان,39.56659,47.64257,Rihab,الرحاب,أذربيجان,Warthan
موقان,منوقان,منوقان/ منوجان,27.45601,57.56194,Kirman,الرحاب,أذربيجان,|Manuqan, Manujan|
موقان,باجروان,موقان,39.2256,48.12475,Rihab,الرحاب,أذربيجان,|Bajarwan, Muqan, Mughkan|
موقان,موغان,موقان,39.33548,48.50179,Rihab,الرحاب,أذربيجان,|Mughan, Mughkan, Muqan|
موقان,موغان,موقان,39.33548,48.50179,Rihab,الرحاب,أذربيجان,|Mughan, Mughkan, Muqan|
ميمذ,ميمذ,ميمذ/ ميمذ,38.5498,47.02219,Rihab,الرحاب,أذربيجان,|Maymadh, Mimadh|
برزند,برزند,برزند,38.96621,47.85286,Rihab,الرحاب,أذربيجان,Barzand
بنجبور,بنجبور,بنجبور/ فنجبور/ بنزبور/ قنزبور,26.92662,64.11916,Sind,السند,مكران,|Bannajbur, Fannajbur, Bannazbur, Qannazbur|
كيج,كيج,كيج/ كيز,26.02584,63.09359,Sind,السند,مكران,|Kij, Kiz|
بربور,بربور,بربور,27.25778,60.41989,Sind,السند,مكران,Barbur
خواش,خواش,خواش/ خواش/ أخواش,31.49499,62.76028,Sijistan,السند,مكران,|Khawash, Khuwash, Akhwash|
خواش,خواش,خواش/ خواص,27.79777,61.88374,Sind,السند,مكران,|Khawash, Khawas|
جالك,جالق,جالك,27.64173,62.64811,Sind,السند,مكران,|Jalq, Jalk|
دزك,دزك,دزك,27.36457,62.26752,Sind,السند,مكران,Dizak
دشت علي,دشت علي,دشت علي,25.58676,61.15124,Sind,السند,مكران,Dasht Ali
التيز,التيز,التيز,25.38207,60.63196,Sind,السند,مكران,al-Tiz
قندبيل,قندابيل,قندابيل,28.62665,67.48191,Sind,السند,طوران,Qandabil
رستاكهن,رستاكهن,رستاكهن,26.57497,66.40105,Sind,السند,طوران,Rustakuhan
المنصورة,المنصورة,المنصورة,25.8651,68.87697,Sind,السند,السند,al-Mansura
قنوج,قنوج,قنوج,27.11654,80.03921,Sind,السند,قنوج,Qannawj
قنوج,قنوج,قنوج,27.11654,80.03921,Sind,السند,قنوج,Qannawj
وجين,وجين,وجين,23.20809,75.78308,Sind,السند,قنوج,Wujayn
الملتان,المولتان,المولتان,30.17568,71.40071,Sind,السند,الملتان,al-Multan
مكة,مكة,مكة,21.39132,39.83612,Jazirat al-Arab,جزيرة العرب,الحجاز,Makka
يثرب,المدينة,يثرب,24.47782,39.60908,Jazirat al-Arab,جزيرة العرب,الحجاز,|al-Madina, Madinta al-Nabi, Yathrib|
ينبع,ينبع,ينبع,24.1082,38.12512,Jazirat al-Arab,جزيرة العرب,الحجاز,Yanbu
قرح,قرح,قرح,26.55412,37.99288,Jazirat al-Arab,جزيرة العرب,الحجاز,Qurh
خيبر,خيبر,خيبر,25.78667,39.26821,Jazirat al-Arab,جزيرة العرب,الحجاز,Khaybar
المروة,المروة,المروة/ ذو المروة,25.71785,38.58647,Jazirat al-Arab,جزيرة العرب,الحجاز,|al-Marwa, Dhu al-Marwa|
الحوراء,الحوراء,الحوراء,25.0302,37.33759,Jazirat al-Arab,جزيرة العرب,الحجاز,al-Hawra
جدة,جدة,جدة,21.46201,39.1779,Jazirat al-Arab,جزيرة العرب,الحجاز,Judda
الطائف,الطائف,الطائف,21.21629,40.40566,Jazirat al-Arab,جزيرة العرب,الحجاز,al-Taif
الجار,الجفار,الجفار,30.75519,33.23727,Egypt,جزيرة العرب,الحجاز,al-Jifar
الجار,الجار,الجار,23.8182,38.50713,Jazirat al-Arab,جزيرة العرب,الحجاز,al-Jar
السقيا,سقياء يزيد,السقياء,26.15916,38.35433,Jazirat al-Arab,جزيرة العرب,الحجاز,|Suqya Yazid, al-Suqya|
العونيد,العونيد,العونيد,31.64055,36.92899,Badiyat al-Arab,جزيرة العرب,الحجاز,al-Awnid
العونيد,العونيد,العونيد,27.00533,35.99173,Jazirat al-Arab,جزيرة العرب,الحجاز,al-Awnid
الجحفة,الجحفة,الجحفة,22.60833,39.12422,Jazirat al-Arab,جزيرة العرب,الحجاز,al-Juhfa
بدر,بدر,بدر,23.72676,38.80098,Jazirat al-Arab,جزيرة العرب,الحجاز,Badr
بدر,بدر,بدر,13.87387,44.72906,Yemen,جزيرة العرب,الحجاز,Badr
خليص,خليص,خليص,22.10557,39.41808,Jazirat al-Arab,جزيرة العرب,الحجاز,Khulays
الحجر,حجر صالح,الحجر,26.86125,37.93999,Jazirat al-Arab,جزيرة العرب,الحجاز,|Hijr Salih, al-Hijr|
الحجر,الحاجر,الحاجر,25.9691,41.75129,Jazirat al-Arab,جزيرة العرب,الحجاز,al-Hajir
الحجر,الحجر,الحجر,24.64352,46.73212,Jazirat al-Arab,جزيرة العرب,الحجاز,al-Hajr
بدا يعقوب,بداء يعقوب,بداء يعقوب,27.03413,36.74694,Jazirat al-Arab,جزيرة العرب,الحجاز,Bada Yaqub
السوارقية,السوارقية,السوارقية,23.28483,40.35548,Jazirat al-Arab,جزيرة العرب,الحجاز,al-Suwariqiyya
جبلة,جبلة,جبلة,35.36567,35.95309,Sham,جزيرة العرب,الحجاز,Jabala
زبيد,زبيد,زبيد,14.20796,43.32654,Yemen,جزيرة العرب,تهامه,Zabid
مور,مور,مور,15.73119,42.89942,Yemen,جزيرة العرب,تهامه,Mawr
عطنة,عطنة,عطنة,14.82308,42.94507,Yemen,جزيرة العرب,تهامه,Itna
الشرجة,الشرجة,الشرجة,16.32481,42.80636,Yemen,جزيرة العرب,تهامه,al-Sharja
الحمضة,الحمة,الحمة,34.0563,8.19472,Maghrib,جزيرة العرب,تهامه,al-Hamma
غلافقة,غلافقة,غلافقة,14.44273,43.03243,Yemen,جزيرة العرب,تهامه,Ghalafiqa
مخا,مخا,مخا,13.32902,43.26069,Yemen,جزيرة العرب,تهامه,Mukha
الحردة,الحردة,الحردة,15.22479,42.73173,Yemen,جزيرة العرب,تهامه,al-Hirda
الحردة,الحردة,الحردة,15.22479,42.73173,Yemen,جزيرة العرب,تهامه,al-Hirda
الخصوف,الخصوف,الخصوف,16.67647,42.88142,Yemen,جزيرة العرب,تهامه,al-Khasuf
الساعد,الساعدة,الساعدة,32.13274,37.98572,Badiyat al-Arab,جزيرة العرب,تهامه,al-Saida
المهجم,المهجم,المهجم,15.22352,43.07237,Yemen,جزيرة العرب,تهامه,al-Mahjam
عدن,عدن,عدن,12.79365,45.03942,Yemen,جزيرة العرب,أبين,Adan
لهج,لحج,لهج,13.06747,44.86953,Yemen,جزيرة العرب,أبين,|Lahj, Lahj|
بيش,بيش,بيش,17.37689,42.53617,Yemen,جزيرة العرب,عثر,Baysh
السرين,السرين,السرين,19.83698,40.76268,Jazirat al-Arab,جزيرة العرب,عثر,al-Sirrayn
صنعاء,صنعاء,صنعاء,15.37373,44.20186,Yemen,جزيرة العرب,نجد,Sana
صعدة,صعدة,صعدة,16.9453,43.76442,Yemen,جزيرة العرب,نجد,Sada
نجران,نجران,نجران,17.58603,44.2995,Jazirat al-Arab,جزيرة العرب,نجد,Najran
جرش,جرش,جرش,18.77618,42.44873,Jazirat al-Arab,جزيرة العرب,نجد,Jurash
جرش,جرش,جرش,18.63711,42.69682,Jazirat al-Arab,جزيرة العرب,نجد,Jurash
جرش,جرش,جرش,32.27309,35.8804,Sham,جزيرة العرب,نجد,Jurash
العرف,العرف,العرف,15.09101,44.27297,Yemen,جزيرة العرب,نجد,al-Urf
جبلان,جبلان,جبلان,14.2788,43.67157,Yemen,جزيرة العرب,نجد,Jublan
جبلان,جبلان,جبلان,14.2788,43.67157,Yemen,جزيرة العرب,نجد,Jublan
الجند,الجند,الجند,13.69225,44.17508,Yemen,جزيرة العرب,نجد,al-Janad
الجند,الجند,الجند,13.69225,44.17508,Yemen,جزيرة العرب,نجد,al-Janad
ذمار,ذمار,ذمار,14.56364,44.3972,Yemen,جزيرة العرب,نجد,Dhimar
ذمار,ذمار,ذمار,14.56364,44.3972,Yemen,جزيرة العرب,نجد,Dhimar
نسفان,نسفان,نسفان,14.02916,44.8432,Yemen,جزيرة العرب,نجد,Nasafan
يحصب,يحصب,يحصب,14.21583,44.41651,Yemen,جزيرة العرب,نجد,Yahsib
السحول,السحول,السحول,14.1937,44.03504,Yemen,جزيرة العرب,نجد,al-Suhul
المذيخرة,المذيخرة,المذيخرة,13.78649,43.97403,Yemen,جزيرة العرب,نجد,al-Mudhaykhira
حضرموت,حضرموت,حضرموت,15.64792,48.80405,Jazirat al-Arab,جزيرة العرب,الأحقاف,Hadramawt
الشحر,الشحر,الشحر,14.76671,49.5998,Jazirat al-Arab,جزيرة العرب,مهرة,al-Shihr
صحار,صحار,صحار,24.35205,56.69086,Jazirat al-Arab,جزيرة العرب,عمان,Suhar
نزوة,نزوة,نزوة,22.86309,57.52541,Jazirat al-Arab,جزيرة العرب,عمان,Nazwa
السر,السر,السر,23.0552,56.82897,Jazirat al-Arab,جزيرة العرب,عمان,al-Sirr
ضنك,ضنك,ضنك,23.53023,56.30591,Jazirat al-Arab,جزيرة العرب,عمان,Dank
حفيت,حفيت,حفيت,23.89613,55.85631,Jazirat al-Arab,جزيرة العرب,عمان,Hafit
دبا,دبا,دبا,25.59071,56.22657,Jazirat al-Arab,جزيرة العرب,عمان,Daba
جلفار,جلفار,جلفار,25.75227,55.98855,Jazirat al-Arab,جزيرة العرب,عمان,Jullafar
سمد,سمد,سمد,22.71138,57.96619,Jazirat al-Arab,جزيرة العرب,عمان,Samad
ملح,ملح,ملح,22.61105,58.11018,Jazirat al-Arab,جزيرة العرب,عمان,Milah
الأحساء,الأحساء,الأحساء,25.34929,49.54137,Jazirat al-Arab,جزيرة العرب,هجر,al-Ahsa
الزرقاء,الزرقاء,الزرقاء,32.07029,36.08689,Sham,جزيرة العرب,هجر,al-Zarqa
أوال,أوال,أوال,26.11827,50.56693,Jazirat al-Arab,جزيرة العرب,هجر,Uwal
أوال,أوال,أوال,40.4358,71.74749,Transoxiana,جزيرة العرب,هجر,Awal
العقير,العقير,العقير,25.5589,50.22312,Jazirat al-Arab,جزيرة العرب,هجر,al-Uqayr	
